,Location name,Address,Day,Times,What to do,Date added,gcode,lat,long
0,Countdown Johnsonville Road Wellington,"31 Johnsonville Road, Johnsonville, Wellington 6037",Wednesday 18 August,4.30 pm - 5.00 pm,"Stay at home, test immediately and on or around day 5 after last exposure and continue to stay at home until you receive a negative day 5 test result. Call Healthline for what to do next.",20-Aug,"[{'address_components': [{'long_name': '31', 'short_name': '31', 'types': ['street_number']}, {'long_name': 'Johnsonville Road', 'short_name': 'Johnsonville Rd', 'types': ['route']}, {'long_name': 'Johnsonville', 'short_name': 'Johnsonville', 'types': ['political', 'sublocality', 'sublocality_level_1']}, {'long_name': 'Wellington', 'short_name': 'Wellington', 'types': ['locality', 'political']}, {'long_name': 'Wellington', 'short_name': 'Wellington', 'types': ['administrative_area_level_1', 'political']}, {'long_name': 'New Zealand', 'short_name': 'NZ', 'types': ['country', 'political']}, {'long_name': '6037', 'short_name': '6037', 'types': ['postal_code']}], 'formatted_address': '31 Johnsonville Road, Johnsonville, Wellington 6037, New Zealand', 'geometry': {'location': {'lat': -41.22279520000001, 'lng': 174.8077314}, 'location_type': 'ROOFTOP', 'viewport': {'northeast': {'lat': -41.22144621970851, 'lng': 174.8090803802915}, 'southwest': {'lat': -41.22414418029151, 'lng': 174.8063824197085}}}, 'place_id': 'ChIJh1QcSbatOG0RQS6hgNsr3eU', 'plus_code': {'compound_code': 'QRG5+V3 Wellington, New Zealand', 'global_code': '4VCPQRG5+V3'}, 'types': ['street_address']}]",-41.22279520000001,174.8077314
1,Johnsonville Medical Centre Pharmacy Wellington,"2 Trafalgar Street, Johnsonville, Wellington 6037",Wednesday 18 August,4.15 pm - 4.45 pm,"Staff: Isolate at home for 14 days from date of last exposure. Test immediately, and on days 5 & 12 after last exposure. Call Healthline for what to do next. Customers - Stay at home, test immediately and on or around day 5 after last exposure and continue to stay at home until you receive a negative day 5 test result. Call Healthline for what to do next.",20-Aug,"[{'address_components': [{'long_name': '2', 'short_name': '2', 'types': ['street_number']}, {'long_name': 'Trafalgar Street', 'short_name': 'Trafalgar St', 'types': ['route']}, {'long_name': 'Johnsonville', 'short_name': 'Johnsonville', 'types': ['political', 'sublocality', 'sublocality_level_1']}, {'long_name': 'Wellington', 'short_name': 'Wellington', 'types': ['locality', 'political']}, {'long_name': 'Wellington', 'short_name': 'Wellington', 'types': ['administrative_area_level_1', 'political']}, {'long_name': 'New Zealand', 'short_name': 'NZ', 'types': ['country', 'political']}, {'long_name': '6037', 'short_name': '6037', 'types': ['postal_code']}], 'formatted_address': '2 Trafalgar Street, Johnsonville, Wellington 6037, New Zealand', 'geometry': {'location': {'lat': -41.2217934, 'lng': 174.8062362}, 'location_type': 'ROOFTOP', 'viewport': {'northeast': {'lat': -41.22044441970849, 'lng': 174.8075851802915}, 'southwest': {'lat': -41.22314238029149, 'lng': 174.8048872197085}}}, 'place_id': 'ChIJ1ePToLetOG0RCFx4TGnbFPo', 'plus_code': {'compound_code': 'QRH4+7F Wellington, New Zealand', 'global_code': '4VCPQRH4+7F'}, 'types': ['street_address']}]",-41.2217934,174.8062362
2,1841 Bar and Restaurant Johnsonville,"1 Disraeli Street, Johnsonville, Wellington 6037",Tuesday 17 August,7.00 pm - 9.00 pm,"Staff: Isolate at home for 14 days from date of last exposure. Test immediately, and on days 5 & 12 after last exposure. Call Healthline for what to do next.  Johnsonville Mall customers: Self-monitor for COVID-19 symptoms for 14 days. If symptoms develop, get a test and stay at home until you get a negative test result AND until 24 hours after symptoms resolve.  ""Staff - Isolate at home for 14 days from date of last exposure. Test immediately, and on days 5 & 12 after last exposure. Call Healthline for what to do next.  Downstairs customers - Isolate at home for 14 days from date of last exposure. Test immediately, and on days 5 & 12 after last exposure. Call Healthline for what to do next.  Upstairs customers - Self-monitor for COVID-19 symptoms for 14 days. If symptoms develop, get a test and stay at home until you get a negative test result AND until 24 hours after symptoms resolve.""",20-Aug,"[{'address_components': [{'long_name': '1', 'short_name': '1', 'types': ['street_number']}, {'long_name': 'Disraeli Street', 'short_name': 'Disraeli St', 'types': ['route']}, {'long_name': 'Johnsonville', 'short_name': 'Johnsonville', 'types': ['political', 'sublocality', 'sublocality_level_1']}, {'long_name': 'Wellington', 'short_name': 'Wellington', 'types': ['locality', 'political']}, {'long_name': 'Wellington', 'short_name': 'Wellington', 'types': ['administrative_area_level_1', 'political']}, {'long_name': 'New Zealand', 'short_name': 'NZ', 'types': ['country', 'political']}, {'long_name': '6037', 'short_name': '6037', 'types': ['postal_code']}], 'formatted_address': '1 Disraeli Street, Johnsonville, Wellington 6037, New Zealand', 'geometry': {'location': {'lat': -41.2251942, 'lng': 174.8075007}, 'location_type': 'ROOFTOP', 'viewport': {'northeast': {'lat': -41.2238452197085, 'lng': 174.8088496802915}, 'southwest': {'lat': -41.2265431802915, 'lng': 174.8061517197085}}}, 'place_id': 'ChIJr6KqzsmtOG0RaErge0NVdvA', 'plus_code': {'compound_code': 'QRF5+W2 Wellington, New Zealand', 'global_code': '4VCPQRF5+W2'}, 'types': ['street_address']}]",-41.2251942,174.8075007
3,One Sushi Porirua,"10 Serlby Place, Porirua City Centre, Porirua 5022",Tuesday 17 August,6.15 pm - 6.30 pm,"Staff- Isolate at home for 14 days from date of last exposure. Test immediately, and on days 5 & 12 after last exposure. Call Healthline for what to do next. Customers - Self-monitor for COVID-19 symptoms for 14 days. If symptoms develop, get a test and stay at home until you get a negative test result AND until 24 hours after symptoms resolve.",20-Aug,"[{'address_components': [{'long_name': '10', 'short_name': '10', 'types': ['street_number']}, {'long_name': 'Serlby Place', 'short_name': 'Serlby Pl', 'types': ['route']}, {'long_name': 'Porirua City Centre', 'short_name': 'Porirua City Centre', 'types': ['political', 'sublocality', 'sublocality_level_1']}, {'long_name': 'Porirua', 'short_name': 'Porirua', 'types': ['locality', 'political']}, {'long_name': 'Wellington', 'short_name': 'Wellington', 'types': ['administrative_area_level_1', 'political']}, {'long_name': 'New Zealand', 'short_name': 'NZ', 'types': ['country', 'political']}, {'long_name': '5022', 'short_name': '5022', 'types': ['postal_code']}], 'formatted_address': '10 Serlby Place, Porirua City Centre, Porirua 5022, New Zealand', 'geometry': {'location': {'lat': -41.1348034, 'lng': 174.8407335}, 'location_type': 'ROOFTOP', 'viewport': {'northeast': {'lat': -41.13345441970849, 'lng': 174.8420824802915}, 'southwest': {'lat': -41.13615238029149, 'lng': 174.8393845197085}}}, 'place_id': 'ChIJ4e82G3JTP20RIHfRpGTxxhA', 'plus_code': {'compound_code': 'VR8R+37 Porirua, Wellington, New Zealand', 'global_code': '4VCPVR8R+37'}, 'types': ['street_address']}]",-41.1348034,174.8407335
4,The Roast Canteen Johnsonville,"5 Johnsonville Road, Johnsonville, Wellington 6037",Tuesday 17 August,5.30 pm - 5.45 pm,"Staff - Isolate at home for 14 days from date of last exposure. Test immediately, and on days 5 & 12 after last exposure. Call Healthline for what to do next. Customers -Self-monitor for COVID-19 symptoms for 14 days. If symptoms develop, get a test and stay at home until you get a negative test result AND until 24 hours after symptoms resolve.",20-Aug,"[{'address_components': [{'long_name': '5', 'short_name': '5', 'types': ['street_number']}, {'long_name': 'Johnsonville Road', 'short_name': 'Johnsonville Rd', 'types': ['route']}, {'long_name': 'Johnsonville', 'short_name': 'Johnsonville', 'types': ['political', 'sublocality', 'sublocality_level_1']}, {'long_name': 'Wellington', 'short_name': 'Wellington', 'types': ['locality', 'political']}, {'long_name': 'Wellington', 'short_name': 'Wellington', 'types': ['administrative_area_level_1', 'political']}, {'long_name': 'New Zealand', 'short_name': 'NZ', 'types': ['country', 'political']}, {'long_name': '6037', 'short_name': '6037', 'types': ['postal_code']}], 'formatted_address': '5 Johnsonville Road, Johnsonville, Wellington 6037, New Zealand', 'geometry': {'location': {'lat': -41.2221536, 'lng': 174.8075548}, 'location_type': 'ROOFTOP', 'viewport': {'northeast': {'lat': -41.2208046197085, 'lng': 174.8089037802915}, 'southwest': {'lat': -41.2235025802915, 'lng': 174.8062058197085}}}, 'place_id': 'ChIJ6fPbU7atOG0RTE4HmoqGMg0', 'plus_code': {'compound_code': 'QRH5+42 Wellington, New Zealand', 'global_code': '4VCPQRH5+42'}, 'types': ['street_address']}]",-41.2221536,174.8075548
5,St Pierre's Sushi Johnsonville Mall,"66 Johnsonville Road, Johnsonville, Wellington 6037",Tuesday 17 August,5.15 pm - 5.30 pm,"Staff: Isolate at home for 14 days from date of last exposure. Test immediately, and on days 5 & 12 after last exposure. Call Healthline for what to do next.  Johnsonville Mall customers: Self-monitor for COVID-19 symptoms for 14 days. If symptoms develop, get a test and stay at home until you get a negative test result AND until 24 hours after symptoms resolve.",20-Aug,"[{'address_components': [{'long_name': '66', 'short_name': '66', 'types': ['street_number']}, {'long_name': 'Johnsonville Road', 'short_name': 'Johnsonville Rd', 'types': ['route']}, {'long_name': 'Johnsonville', 'short_name': 'Johnsonville', 'types': ['political', 'sublocality', 'sublocality_level_1']}, {'long_name': 'Wellington', 'short_name': 'Wellington', 'types': ['locality', 'political']}, {'long_name': 'Wellington', 'short_name': 'Wellington', 'types': ['administrative_area_level_1', 'political']}, {'long_name': 'New Zealand', 'short_name': 'NZ', 'types': ['country', 'political']}, {'long_name': '6037', 'short_name': '6037', 'types': ['postal_code']}], 'formatted_address': '66 Johnsonville Road, Johnsonville, Wellington 6037, New Zealand', 'geometry': {'location': {'lat': -41.2238182, 'lng': 174.8070874}, 'location_type': 'ROOFTOP', 'viewport': {'northeast': {'lat': -41.2224692197085, 'lng': 174.8084363802915}, 'southwest': {'lat': -41.22516718029149, 'lng': 174.8057384197085}}}, 'place_id': 'ChIJ_QbI07etOG0RG0Dj54Qw27I', 'plus_code': {'compound_code': 'QRG4+FR Wellington, New Zealand', 'global_code': '4VCPQRG4+FR'}, 'types': ['street_address']}]",-41.2238182,174.8070874
0,New World Green Bay,"64 Godley Road, Green Bay, Auckland 0604",Tuesday 17 August,7.00 pm - 8.00 pm,"Isolate at home for 14 days from date of last exposure. Test immediately, and on days 5 & 12 after last exposure. Call Healthline for what to do next.",19-Aug,"[{'address_components': [{'long_name': '64', 'short_name': '64', 'types': ['street_number']}, {'long_name': 'Godley Road', 'short_name': 'Godley Rd', 'types': ['route']}, {'long_name': 'Green Bay', 'short_name': 'Green Bay', 'types': ['political', 'sublocality', 'sublocality_level_1']}, {'long_name': 'Auckland', 'short_name': 'Auckland', 'types': ['locality', 'political']}, {'long_name': 'Auckland', 'short_name': 'Auckland', 'types': ['administrative_area_level_1', 'political']}, {'long_name': 'New Zealand', 'short_name': 'NZ', 'types': ['country', 'political']}, {'long_name': '0604', 'short_name': '0604', 'types': ['postal_code']}], 'formatted_address': '64 Godley Road, Green Bay, Auckland 0604, New Zealand', 'geometry': {'location': {'lat': -36.9307521, 'lng': 174.6791938}, 'location_type': 'ROOFTOP', 'viewport': {'northeast': {'lat': -36.9294031197085, 'lng': 174.6805427802915}, 'southwest': {'lat': -36.9321010802915, 'lng': 174.6778448197085}}}, 'place_id': 'ChIJR5dpS-VDDW0RLg0vYGaR8W0', 'plus_code': {'compound_code': '3M9H+MM Auckland, New Zealand', 'global_code': '4VMP3M9H+MM'}, 'types': ['street_address']}]",-36.9307521,174.6791938
1,Domino's Birkenhead,"Unit A/174 Mokoia Rd, Birkenhead, Auckland, 0626",Tuesday 17 August,5.30 pm - 5.40 pm,"Isolate at home for 14 days from date of last exposure. Test immediately, and on days 5 & 12 after last exposure. Call Healthline for what to do next.",19-Aug,"[{'address_components': [{'long_name': 'a', 'short_name': 'a', 'types': ['subpremise']}, {'long_name': '174', 'short_name': '174', 'types': ['street_number']}, {'long_name': 'Mokoia Road', 'short_name': 'Mokoia Rd', 'types': ['route']}, {'long_name': 'Chatswood', 'short_name': 'Chatswood', 'types': ['political', 'sublocality', 'sublocality_level_1']}, {'long_name': 'Auckland', 'short_name': 'Auckland', 'types': ['locality', 'political']}, {'long_name': 'Auckland', 'short_name': 'Auckland', 'types': ['administrative_area_level_1', 'political']}, {'long_name': 'New Zealand', 'short_name': 'NZ', 'types': ['country', 'political']}, {'long_name': '0626', 'short_name': '0626', 'types': ['postal_code']}], 'formatted_address': 'a/174 Mokoia Road, Chatswood, Auckland 0626, New Zealand', 'geometry': {'location': {'lat': -36.8109413, 'lng': 174.7131255}, 'location_type': 'ROOFTOP', 'viewport': {'northeast': {'lat': -36.80959231970851, 'lng': 174.7144744802915}, 'southwest': {'lat': -36.81229028029151, 'lng': 174.7117765197085}}}, 'place_id': 'EjhhLzE3NCBNb2tvaWEgUm9hZCwgQ2hhdHN3b29kLCBBdWNrbGFuZCAwNjI2LCBOZXcgWmVhbGFuZCIdGhsKFgoUChIJQQecNuo4DW0R7FyxWTxTrPYSAWE', 'types': ['subpremise']}]",-36.8109413,174.7131255
2,Public Bus 326 Mangere-Otahuhu,Auckland,Tuesday 17 August,4.30 pm - 6.00 pm,"Isolate at home for 14 days from date of last exposure. Test immediately, and on days 5 & 12 after last exposure. Call Healthline for what to do next.",20-Aug,"[{'address_components': [{'long_name': 'Auckland', 'short_name': 'Auckland', 'types': ['locality', 'political']}, {'long_name': 'Auckland', 'short_name': 'Auckland', 'types': ['administrative_area_level_1', 'political']}, {'long_name': 'New Zealand', 'short_name': 'NZ', 'types': ['country', 'political']}], 'formatted_address': 'Auckland, New Zealand', 'geometry': {'bounds': {'northeast': {'lat': -36.66060179999999, 'lng': 174.9684261}, 'southwest': {'lat': -37.0590199, 'lng': 174.443816}}, 'location': {'lat': -36.85088270000001, 'lng': 174.7644881}, 'location_type': 'APPROXIMATE', 'viewport': {'northeast': {'lat': -36.66060179999999, 'lng': 174.9684261}, 'southwest': {'lat': -37.0590199, 'lng': 174.443816}}}, 'place_id': 'ChIJ--acWvtHDW0RF5miQ2HvAAU', 'types': ['locality', 'political']}]",-36.85088270000001,174.7644881
3,"The Local Doctors GP Practice, Ōtara","3 Watford Street, Ōtara, Auckland 2023",Tuesday 17 August,4.21 pm - 8.30pm,"Isolate at home for 14 days from date of last exposure. Test immediately, and on days 5 & 12 after last exposure. Call Healthline for what to do next.",20-Aug,"[{'address_components': [{'long_name': '3', 'short_name': '3', 'types': ['street_number']}, {'long_name': 'Watford Street', 'short_name': 'Watford St', 'types': ['route']}, {'long_name': 'Ōtara', 'short_name': 'Ōtara', 'types': ['political', 'sublocality', 'sublocality_level_1']}, {'long_name': 'Auckland', 'short_name': 'Auckland', 'types': ['locality', 'political']}, {'long_name': 'Auckland', 'short_name': 'Auckland', 'types': ['administrative_area_level_1', 'political']}, {'long_name': 'New Zealand', 'short_name': 'NZ', 'types': ['country', 'political']}, {'long_name': '2023', 'short_name': '2023', 'types': ['postal_code']}], 'formatted_address': '3 Watford Street, Ōtara, Auckland 2023, New Zealand', 'geometry': {'location': {'lat': -36.9621108, 'lng': 174.8729104}, 'location_type': 'ROOFTOP', 'viewport': {'northeast': {'lat': -36.96076181970849, 'lng': 174.8742593802915}, 'southwest': {'lat': -36.96345978029149, 'lng': 174.8715614197085}}}, 'place_id': 'ChIJI3UeVzdMDW0RReiAVvmtvjQ', 'plus_code': {'compound_code': '2VQF+55 Auckland, New Zealand', 'global_code': '4VMP2VQF+55'}, 'types': ['street_address']}]",-36.9621108,174.8729104
4,Public Bus 309X Queen St-Newmarket-Mangere,Auckland,Tuesday 17 August,3.30 pm - 5.00 pm,"Isolate at home for 14 days from date of last exposure. Test immediately, and on days 5 & 12 after last exposure. Call Healthline for what to do next.",20-Aug,"[{'address_components': [{'long_name': 'Auckland', 'short_name': 'Auckland', 'types': ['locality', 'political']}, {'long_name': 'Auckland', 'short_name': 'Auckland', 'types': ['administrative_area_level_1', 'political']}, {'long_name': 'New Zealand', 'short_name': 'NZ', 'types': ['country', 'political']}], 'formatted_address': 'Auckland, New Zealand', 'geometry': {'bounds': {'northeast': {'lat': -36.66060179999999, 'lng': 174.9684261}, 'southwest': {'lat': -37.0590199, 'lng': 174.443816}}, 'location': {'lat': -36.85088270000001, 'lng': 174.7644881}, 'location_type': 'APPROXIMATE', 'viewport': {'northeast': {'lat': -36.66060179999999, 'lng': 174.9684261}, 'southwest': {'lat': -37.0590199, 'lng': 174.443816}}}, 'place_id': 'ChIJ--acWvtHDW0RF5miQ2HvAAU', 'types': ['locality', 'political']}]",-36.85088270000001,174.7644881
5,Bus 95B or 95C Northcote College to Glenfield,Bus 95B or 95C,Tuesday 17 August,2.30 pm - 3.20 pm,"Isolate at home for 14 days from date of last exposure. Test immediately, and on days 5 & 12 after last exposure. Call Healthline for what to do next.",20-Aug,[],,
6,Bus 25B City Centre to Blockhouse Bay,Bus 25B,Tuesday 17 August,1.45 pm - 2.15 pm,"Isolate at home for 14 days from date of last exposure. Test immediately, and on days 5 & 12 after last exposure. Call Healthline for what to do next.",18-Aug,[],,
7,Mamak Malaysian Restaurant,"50 Kitchener Street, Auckland Central, 1010",Tuesday 17 August,1.15 pm - 1.30 pm,"Isolate at home for 14 days from date of last exposure. Test immediately, and on days 5 & 12 after last exposure. Call Healthline for what to do next.",18-Aug,"[{'address_components': [{'long_name': '50', 'short_name': '50', 'types': ['street_number']}, {'long_name': 'Kitchener Street', 'short_name': 'Kitchener St', 'types': ['route']}, {'long_name': 'Auckland CBD', 'short_name': 'Auckland CBD', 'types': ['political', 'sublocality', 'sublocality_level_1']}, {'long_name': 'Auckland', 'short_name': 'Auckland', 'types': ['locality', 'political']}, {'long_name': 'Auckland', 'short_name': 'Auckland', 'types': ['administrative_area_level_1', 'political']}, {'long_name': 'New Zealand', 'short_name': 'NZ', 'types': ['country', 'political']}, {'long_name': '1010', 'short_name': '1010', 'types': ['postal_code']}], 'formatted_address': '50 Kitchener Street, Auckland CBD, Auckland 1010, New Zealand', 'geometry': {'location': {'lat': -36.8483162, 'lng': 174.7676607}, 'location_type': 'ROOFTOP', 'viewport': {'northeast': {'lat': -36.8469672197085, 'lng': 174.7690096802915}, 'southwest': {'lat': -36.8496651802915, 'lng': 174.7663117197085}}}, 'place_id': 'ChIJw6eEZvtHDW0RiJdBuvy4118', 'plus_code': {'compound_code': '5Q29+M3 Auckland, New Zealand', 'global_code': '4VMP5Q29+M3'}, 'types': ['street_address']}]",-36.8483162,174.7676607
8,Dress Smart Onehunga,"151 Arthur Street, Onehunga, Auckland, 1061",Tuesday 17 August,12.30 pm - 1.30 pm,"Isolate at home for 14 days from date of last exposure. Test immediately, and on days 5 & 12 after last exposure. Call Healthline for what to do next.",19-Aug,"[{'address_components': [{'long_name': '151', 'short_name': '151', 'types': ['street_number']}, {'long_name': 'Arthur Street', 'short_name': 'Arthur St', 'types': ['route']}, {'long_name': 'Onehunga', 'short_name': 'Onehunga', 'types': ['political', 'sublocality', 'sublocality_level_1']}, {'long_name': 'Auckland', 'short_name': 'Auckland', 'types': ['locality', 'political']}, {'long_name': 'Auckland', 'short_name': 'Auckland', 'types': ['administrative_area_level_1', 'political']}, {'long_name': 'New Zealand', 'short_name': 'NZ', 'types': ['country', 'political']}, {'long_name': '1061', 'short_name': '1061', 'types': ['postal_code']}], 'formatted_address': '151 Arthur Street, Onehunga, Auckland 1061, New Zealand', 'geometry': {'location': {'lat': -36.9207786, 'lng': 174.786318}, 'location_type': 'ROOFTOP', 'viewport': {'northeast': {'lat': -36.9194296197085, 'lng': 174.7876669802915}, 'southwest': {'lat': -36.92212758029149, 'lng': 174.7849690197085}}}, 'place_id': 'ChIJKZNCLLJIDW0RPq002wAyfi4', 'plus_code': {'compound_code': '3QHP+MG Auckland, New Zealand', 'global_code': '4VMP3QHP+MG'}, 'types': ['street_address']}]",-36.9207786,174.786318
9,Auckland University of Technology,"2 Governor Fitzroy Place, Auckland Central, Auckland 1010",Tuesday 17 August,11.30 am - 1.00 pm,"Isolate at home. Those in or around lecture theatre WG403 or the level 4 foyer outside the lecture theatre, refer to information sent to you directly by ARPHS (letter dated 19 August 2021, Auckland University of Technology (AUT) Wellesley St campus - COVID-19 case) for what to do next. If you were in either of these areas and have not received information directly, please isolate at home and call Healthline for what to do next. Anyone who was elsewhere on the city campus should monitor their health and if they become unwell, isolate at home and call Healthline for advice.",18-Aug,"[{'address_components': [{'long_name': '2', 'short_name': '2', 'types': ['street_number']}, {'long_name': 'Governor Fitzroy Place', 'short_name': 'Gov Fitzroy Pl', 'types': ['route']}, {'long_name': 'Auckland CBD', 'short_name': 'Auckland CBD', 'types': ['political', 'sublocality', 'sublocality_level_1']}, {'long_name': 'Auckland', 'short_name': 'Auckland', 'types': ['locality', 'political']}, {'long_name': 'Auckland', 'short_name': 'Auckland', 'types': ['administrative_area_level_1', 'political']}, {'long_name': 'New Zealand', 'short_name': 'NZ', 'types': ['country', 'political']}, {'long_name': '1010', 'short_name': '1010', 'types': ['postal_code']}], 'formatted_address': '2 Governor Fitzroy Place, Auckland CBD, Auckland 1010, New Zealand', 'geometry': {'location': {'lat': -36.8534183, 'lng': 174.7645969}, 'location_type': 'ROOFTOP', 'viewport': {'northeast': {'lat': -36.85206931970851, 'lng': 174.7659458802915}, 'southwest': {'lat': -36.8547672802915, 'lng': 174.7632479197085}}}, 'place_id': 'ChIJZ2-Wu-VHDW0RsoKl85OnEAU', 'types': ['subpremise']}]",-36.8534183,174.7645969
10,Bus 25B Blockhouse Bay to City Centre,Bus 25B,Tuesday 17 August,11.00 am - 11.30 am,"Isolate at home for 14 days from date of last exposure. Test immediately, and on days 5 & 12 after last exposure. Call Healthline for what to do next.",19-Aug,[],,
11,KFC Botany Downs,"452 Ti Rakau Drive, Botany Downs, Auckland 2013",Tuesday 17 August,10.30 am - 10.40 am,"Isolate at home for 14 days from date of last exposure. Test immediately, and on days 5 & 12 after last exposure. Call Healthline for what to do next.",19-Aug,"[{'address_components': [{'long_name': '452', 'short_name': '452', 'types': ['street_number']}, {'long_name': 'Ti Rakau Drive', 'short_name': 'Ti Rakau Dr', 'types': ['route']}, {'long_name': 'Auckland', 'short_name': 'Auckland', 'types': ['administrative_area_level_1', 'political']}, {'long_name': 'New Zealand', 'short_name': 'NZ', 'types': ['country', 'political']}, {'long_name': '2013', 'short_name': '2013', 'types': ['postal_code']}], 'formatted_address': '452 Ti Rakau Drive, Auckland 2013, New Zealand', 'geometry': {'location': {'lat': -36.9287299, 'lng': 174.9109856}, 'location_type': 'RANGE_INTERPOLATED', 'viewport': {'northeast': {'lat': -36.9273809197085, 'lng': 174.9123345802915}, 'southwest': {'lat': -36.9300788802915, 'lng': 174.9096366197085}}}, 'place_id': 'Eh80NTIgVGkgUmFrYXUgRHJpdmUsIE5ldyBaZWFsYW5kIhsSGQoUChIJY3I6_mJLDW0R2L18YwkzRRQQxAM', 'types': ['street_address']}]",-36.9287299,174.9109856
12,Countdown Botany Downs,"Cnr Te Irirangi Drive &, Ti Rakau Drive, Botany Downs, Auckland 2023",Tuesday 17 August,10.20 am - 10.30 am,"Isolate at home for 14 days from date of last exposure. Test immediately, and on days 5 & 12 after last exposure. Call Healthline for what to do next.",19-Aug,"[{'address_components': [{'long_name': 'Ti Rakau Drive & Te Irirangi Drive', 'short_name': 'Ti Rakau Dr & Te Irirangi Dr', 'types': ['intersection']}, {'long_name': 'Golflands', 'short_name': 'Golflands', 'types': ['political', 'sublocality', 'sublocality_level_1']}, {'long_name': 'Auckland', 'short_name': 'Auckland', 'types': ['locality', 'political']}, {'long_name': 'Auckland', 'short_name': 'Auckland', 'types': ['administrative_area_level_1', 'political']}, {'long_name': 'New Zealand', 'short_name': 'NZ', 'types': ['country', 'political']}, {'long_name': '2013', 'short_name': '2013', 'types': ['postal_code']}], 'formatted_address': 'Ti Rakau Dr & Te Irirangi Dr, Golflands, Auckland 2013, New Zealand', 'geometry': {'location': {'lat': -36.9287974, 'lng': 174.9123991}, 'location_type': 'GEOMETRIC_CENTER', 'viewport': {'northeast': {'lat': -36.9274484197085, 'lng': 174.9137480802915}, 'southwest': {'lat': -36.9301463802915, 'lng': 174.9110501197085}}}, 'place_id': 'EkNUaSBSYWthdSBEciAmIFRlIElyaXJhbmdpIERyLCBHb2xmbGFuZHMsIEF1Y2tsYW5kIDIwMTMsIE5ldyBaZWFsYW5kImYiZAoUChIJ64eATGJLDW0Raj36Kz4KY9cSFAoSCeuHgExiSw1tEWo9-is-CmPXGhQKEgkLHki7hEsNbRH7vEZYFQgMJBoUChIJu61fyVhMDW0RrF6Z2JUSHcEiCg3aHP3pFZeDQWg', 'types': ['intersection']}]",-36.9287974,174.9123991
13,Botany Town Centre Bus Stop,"Town Centre Dr, East Tamaki, Auckland 2013",Tuesday 17 August,9.52 am - 9.57 am,"Isolate at home for 14 days from date of last exposure. Test immediately, and on days 5 & 12 after last exposure. Call Healthline for what to do next.",19-Aug,"[{'address_components': [{'long_name': 'Town Centre Drive', 'short_name': 'Town Centre Dr', 'types': ['route']}, {'long_name': 'Auckland', 'short_name': 'Auckland', 'types': ['administrative_area_level_1', 'political']}, {'long_name': 'New Zealand', 'short_name': 'NZ', 'types': ['country', 'political']}, {'long_name': '2013', 'short_name': '2013', 'types': ['postal_code']}], 'formatted_address': 'Town Centre Drive, Auckland 2013, New Zealand', 'geometry': {'bounds': {'northeast': {'lat': -36.9315757, 'lng': 174.9167949}, 'southwest': {'lat': -36.9355531, 'lng': 174.9109601}}, 'location': {'lat': -36.9337857, 'lng': 174.9132244}, 'location_type': 'GEOMETRIC_CENTER', 'viewport': {'northeast': {'lat': -36.9315757, 'lng': 174.9167949}, 'southwest': {'lat': -36.9355531, 'lng': 174.9109601}}}, 'place_id': 'EiFUb3duIENlbnRyZSBEciwgMjAxMywgTmV3IFplYWxhbmQiLiosChQKEgk3dNzHnUwNbRHQf5iSsYPI8BIUChIJ83exdHxMDW0Ru6ZfVPawnyI', 'types': ['route']}]",-36.9337857,174.9132244
14,Bus #70 Pakuranga Town Centre to Botany Town Centre,Bus 70,Tuesday 17 August,9.38 am - 9.52 am,"Isolate at home for 14 days from date of last exposure. Test immediately, and on days 5 & 12 after last exposure. Call Healthline for what to do next.",19-Aug,[],,
15,Unichem Pharmacy Birkenhead,"Birkenhead Avenue Shop 28, Highbury Shopping Centre",Tuesday 17 August,9.15 am - 9.30 am,"Isolate at home for 14 days from date of last exposure. Test immediately, and on days 5 & 12 after last exposure. Call Healthline for what to do next.",18-Aug,"[{'address_components': [{'long_name': 'Birkenhead Avenue', 'short_name': 'Birkenhead Ave', 'types': ['route']}, {'long_name': 'Birkenhead', 'short_name': 'Birkenhead', 'types': ['political', 'sublocality', 'sublocality_level_1']}, {'long_name': 'Auckland', 'short_name': 'Auckland', 'types': ['locality', 'political']}, {'long_name': 'Auckland', 'short_name': 'Auckland', 'types': ['administrative_area_level_1', 'political']}, {'long_name': 'New Zealand', 'short_name': 'NZ', 'types': ['country', 'political']}, {'long_name': '0626', 'short_name': '0626', 'types': ['postal_code']}], 'formatted_address': '1 Cnr Highbury Bypass &, Birkenhead Avenue, Birkenhead, Auckland 0626, New Zealand', 'geometry': {'location': {'lat': -36.81095980000001, 'lng': 174.7247724}, 'location_type': 'GEOMETRIC_CENTER', 'viewport': {'northeast': {'lat': -36.80961081970851, 'lng': 174.7261213802915}, 'southwest': {'lat': -36.81230878029151, 'lng': 174.7234234197085}}}, 'place_id': 'ChIJcx8fifE4DW0ROigD6RoZz5c', 'types': ['establishment', 'point_of_interest', 'shopping_mall']}]",-36.81095980000001,174.7247724
16,Blockhouse Bay Christian Kindergarten,"76 Dundale Avenue, Blockhouse Bay, Auckland 0600",Tuesday 17 August,9.00 am - 3.00 pm,"Isolate at home for 14 days from date of last exposure. Test immediately, and on days 5 & 12 after last exposure. Call Healthline for what to do next.",20-Aug,"[{'address_components': [{'long_name': '76', 'short_name': '76', 'types': ['street_number']}, {'long_name': 'Dundale Avenue', 'short_name': 'Dundale Ave', 'types': ['route']}, {'long_name': 'Blockhouse Bay', 'short_name': 'Blockhouse Bay', 'types': ['political', 'sublocality', 'sublocality_level_1']}, {'long_name': 'Auckland', 'short_name': 'Auckland', 'types': ['locality', 'political']}, {'long_name': 'Auckland', 'short_name': 'Auckland', 'types': ['administrative_area_level_1', 'political']}, {'long_name': 'New Zealand', 'short_name': 'NZ', 'types': ['country', 'political']}, {'long_name': '0600', 'short_name': '0600', 'types': ['postal_code']}], 'formatted_address': '76 Dundale Avenue, Blockhouse Bay, Auckland 0600, New Zealand', 'geometry': {'bounds': {'northeast': {'lat': -36.9126719, 'lng': 174.7154625}, 'southwest': {'lat': -36.9130096, 'lng': 174.7148897}}, 'location': {'lat': -36.9128191, 'lng': 174.7151883}, 'location_type': 'ROOFTOP', 'viewport': {'northeast': {'lat': -36.9114917697085, 'lng': 174.7165250802915}, 'southwest': {'lat': -36.9141897302915, 'lng': 174.7138271197085}}}, 'place_id': 'ChIJE5af75lGDW0RuKtw9C1VxaE', 'types': ['premise']}]",-36.9128191,174.7151883
17,Northcote College,"1 Kauri Glen Road, Northcote, Auckland, 0627",Tuesday 17 August,9.00 am - 2.30 pm,"Isolate at home for 14 days from date of last exposure. Test immediately, and on days 5 & 12 after last exposure. Call Healthline for what to do next.",20-Aug,"[{'address_components': [{'long_name': '1', 'short_name': '1', 'types': ['street_number']}, {'long_name': 'Kauri Glen Road', 'short_name': 'Kauri Glen Rd', 'types': ['route']}, {'long_name': 'Northcote', 'short_name': 'Northcote', 'types': ['political', 'sublocality', 'sublocality_level_1']}, {'long_name': 'Auckland', 'short_name': 'Auckland', 'types': ['locality', 'political']}, {'long_name': 'Auckland', 'short_name': 'Auckland', 'types': ['administrative_area_level_1', 'political']}, {'long_name': 'New Zealand', 'short_name': 'NZ', 'types': ['country', 'political']}, {'long_name': '0627', 'short_name': '0627', 'types': ['postal_code']}], 'formatted_address': '1 Kauri Glen Road, Northcote, Auckland 0627, New Zealand', 'geometry': {'location': {'lat': -36.8097999, 'lng': 174.7336941}, 'location_type': 'ROOFTOP', 'viewport': {'northeast': {'lat': -36.8084509197085, 'lng': 174.7350430802915}, 'southwest': {'lat': -36.8111488802915, 'lng': 174.7323451197085}}}, 'place_id': 'ChIJORmhVlg4DW0R8JQa2qokcyQ', 'plus_code': {'compound_code': '5PRM+3F Auckland, New Zealand', 'global_code': '4VMP5PRM+3F'}, 'types': ['street_address']}]",-36.8097999,174.7336941
18,PlaceMakers New Lynn,"17 Clark Street, New Lynn, Auckland, 0600",Tuesday 17 August,9.00 am - 9.40 am,"Isolate at home for 14 days from date of last exposure. Test immediately, and on days 5 & 12 after last exposure. Call Healthline for what to do next.",19-Aug,"[{'address_components': [{'long_name': '17', 'short_name': '17', 'types': ['street_number']}, {'long_name': 'Clark Street', 'short_name': 'Clark St', 'types': ['route']}, {'long_name': 'Auckland', 'short_name': 'Auckland', 'types': ['administrative_area_level_1', 'political']}, {'long_name': 'New Zealand', 'short_name': 'NZ', 'types': ['country', 'political']}, {'long_name': '0600', 'short_name': '0600', 'types': ['postal_code']}], 'formatted_address': '17 Clark Street, Auckland 0600, New Zealand', 'geometry': {'location': {'lat': -36.9103892, 'lng': 174.6893695}, 'location_type': 'RANGE_INTERPOLATED', 'viewport': {'northeast': {'lat': -36.90904021970849, 'lng': 174.6907184802915}, 'southwest': {'lat': -36.91173818029149, 'lng': 174.6880205197085}}}, 'place_id': 'EhwxNyBDbGFyayBTdHJlZXQsIE5ldyBaZWFsYW5kIhoSGAoUChIJUZz8Wk1BDW0RSNY6kokQUhoQEQ', 'types': ['street_address']}]",-36.9103892,174.6893695
19,Passion Bakery,"34 Birkdale Road, Birkdale, Auckland 0626",Tuesday 17 August,8.30 am - 9.45 am,"Isolate at home for 14 days from date of last exposure. Test immediately, and on days 5 & 12 after last exposure. Call Healthline for what to do next.",19-Aug,"[{'address_components': [{'long_name': '34', 'short_name': '34', 'types': ['street_number']}, {'long_name': 'Birkdale Road', 'short_name': 'Birkdale Rd', 'types': ['route']}, {'long_name': 'Birkdale', 'short_name': 'Birkdale', 'types': ['political', 'sublocality', 'sublocality_level_1']}, {'long_name': 'Auckland', 'short_name': 'Auckland', 'types': ['locality', 'political']}, {'long_name': 'Auckland', 'short_name': 'Auckland', 'types': ['administrative_area_level_1', 'political']}, {'long_name': 'New Zealand', 'short_name': 'NZ', 'types': ['country', 'political']}, {'long_name': '0626', 'short_name': '0626', 'types': ['postal_code']}], 'formatted_address': '34 Birkdale Road, Birkdale, Auckland 0626, New Zealand', 'geometry': {'location': {'lat': -36.8058993, 'lng': 174.7044829}, 'location_type': 'ROOFTOP', 'viewport': {'northeast': {'lat': -36.8045503197085, 'lng': 174.7058318802915}, 'southwest': {'lat': -36.8072482802915, 'lng': 174.7031339197085}}}, 'place_id': 'ChIJK1mhlsQ4DW0Rwc0QKTm9i_0', 'plus_code': {'compound_code': '5PV3+JQ Auckland, New Zealand', 'global_code': '4VMP5PV3+JQ'}, 'types': ['street_address']}]",-36.8058993,174.7044829
20,Bus 95B or 95C Glenfiled Mall to Northcote College,Bus 95B or 95C,Tuesday 17 August,8.27 am - 8.40 am,"Isolate at home for 14 days from date of last exposure. Test immediately, and on days 5 & 12 after last exposure. Call Healthline for what to do next.",19-Aug,[],,
21,Bus 926 15 Bently Avenue to Glenfield Mall 17/08/2021,Bus 926,Tuesday 17 August,8.20 am - 8.30 am,"Isolate at home for 14 days from date of last exposure. Test immediately, and on days 5 & 12 after last exposure. Call Healthline for what to do next.",19-Aug,"[{'address_components': [{'long_name': '926 North Street', 'short_name': '926 North Street', 'types': ['establishment', 'point_of_interest', 'transit_station']}, {'long_name': 'Sault Ste. Marie', 'short_name': 'Sault Ste. Marie', 'types': ['locality', 'political']}, {'long_name': 'Algoma District', 'short_name': 'Algoma District', 'types': ['administrative_area_level_2', 'political']}, {'long_name': 'Ontario', 'short_name': 'ON', 'types': ['administrative_area_level_1', 'political']}, {'long_name': 'Canada', 'short_name': 'CA', 'types': ['country', 'political']}, {'long_name': 'P6B 2C6', 'short_name': 'P6B 2C6', 'types': ['postal_code']}], 'formatted_address': '926 North Street, Sault Ste. Marie, ON P6B 2C6, Canada', 'geometry': {'location': {'lat': 46.54364, 'lng': -84.33379}, 'location_type': 'GEOMETRIC_CENTER', 'viewport': {'northeast': {'lat': 46.54498898029149, 'lng': -84.33244101970848}, 'southwest': {'lat': 46.5422910197085, 'lng': -84.3351389802915}}}, 'place_id': 'ChIJH5JnC3E3Nk0ReGxo7RCCu-A', 'types': ['establishment', 'point_of_interest', 'transit_station']}]",46.54364,-84.33379
22,New World Mt Roskill,"53 May Road, Mt Roskill, Auckland 1041",Monday 16 August,7.00 pm - 7.20 pm,"Isolate at home for 14 days from date of last exposure. Test immediately, and on days 5 & 12 after last exposure. Call Healthline for what to do next.",19-Aug,"[{'address_components': [{'long_name': '53', 'short_name': '53', 'types': ['street_number']}, {'long_name': 'May Road', 'short_name': 'May Rd', 'types': ['route']}, {'long_name': 'Mount Roskill', 'short_name': 'Mount Roskill', 'types': ['political', 'sublocality', 'sublocality_level_1']}, {'long_name': 'Auckland', 'short_name': 'Auckland', 'types': ['locality', 'political']}, {'long_name': 'Auckland', 'short_name': 'Auckland', 'types': ['administrative_area_level_1', 'political']}, {'long_name': 'New Zealand', 'short_name': 'NZ', 'types': ['country', 'political']}, {'long_name': '1041', 'short_name': '1041', 'types': ['postal_code']}], 'formatted_address': '53 May Road, Mount Roskill, Auckland 1041, New Zealand', 'geometry': {'bounds': {'northeast': {'lat': -36.9082235, 'lng': 174.7348692}, 'southwest': {'lat': -36.9090023, 'lng': 174.7339441}}, 'location': {'lat': -36.908683, 'lng': 174.7343314}, 'location_type': 'ROOFTOP', 'viewport': {'northeast': {'lat': -36.9072639197085, 'lng': 174.7357556302915}, 'southwest': {'lat': -36.9099618802915, 'lng': 174.7330576697085}}}, 'place_id': 'ChIJj3iiy2NGDW0RT_ZeDSMDPHQ', 'types': ['premise']}]",-36.908683,174.7343314
23,Public Bus 326 Mangere-Otahuhu 16/08/21,Auckland,Monday 16 August,4.30 pm - 6.00 pm,"Isolate at home for 14 days from date of last exposure. Test immediately, and on days 5 & 12 after last exposure. Call Healthline for what to do next.",20-Aug,"[{'address_components': [{'long_name': 'Auckland', 'short_name': 'Auckland', 'types': ['locality', 'political']}, {'long_name': 'Auckland', 'short_name': 'Auckland', 'types': ['administrative_area_level_1', 'political']}, {'long_name': 'New Zealand', 'short_name': 'NZ', 'types': ['country', 'political']}], 'formatted_address': 'Auckland, New Zealand', 'geometry': {'bounds': {'northeast': {'lat': -36.66060179999999, 'lng': 174.9684261}, 'southwest': {'lat': -37.0590199, 'lng': 174.443816}}, 'location': {'lat': -36.85088270000001, 'lng': 174.7644881}, 'location_type': 'APPROXIMATE', 'viewport': {'northeast': {'lat': -36.66060179999999, 'lng': 174.9684261}, 'southwest': {'lat': -37.0590199, 'lng': 174.443816}}}, 'place_id': 'ChIJ--acWvtHDW0RF5miQ2HvAAU', 'types': ['locality', 'political']}]",-36.85088270000001,174.7644881
24,Green Bay Takeaways,"56B Godley Road, Green Bay, Auckland 0604",Monday 16 August,4.00 pm - 4.15 pm,"Isolate at home for 14 days from date of last exposure. Test immediately, and on days 5 & 12 after last exposure. Call Healthline for what to do next.",18-Aug,"[{'address_components': [{'long_name': '56B', 'short_name': '56B', 'types': ['street_number']}, {'long_name': 'Godley Road', 'short_name': 'Godley Rd', 'types': ['route']}, {'long_name': 'Green Bay', 'short_name': 'Green Bay', 'types': ['political', 'sublocality', 'sublocality_level_1']}, {'long_name': 'Auckland', 'short_name': 'Auckland', 'types': ['locality', 'political']}, {'long_name': 'Auckland', 'short_name': 'Auckland', 'types': ['administrative_area_level_1', 'political']}, {'long_name': 'New Zealand', 'short_name': 'NZ', 'types': ['country', 'political']}, {'long_name': '0604', 'short_name': '0604', 'types': ['postal_code']}], 'formatted_address': '56B Godley Road, Green Bay, Auckland 0604, New Zealand', 'geometry': {'location': {'lat': -36.9305973, 'lng': 174.680133}, 'location_type': 'ROOFTOP', 'viewport': {'northeast': {'lat': -36.92924831970849, 'lng': 174.6814819802915}, 'southwest': {'lat': -36.93194628029149, 'lng': 174.6787840197085}}}, 'place_id': 'ChIJVwz-uPpDDW0RM0yPWS4WrbM', 'plus_code': {'compound_code': '3M9J+Q3 Auckland, New Zealand', 'global_code': '4VMP3M9J+Q3'}, 'types': ['street_address']}]",-36.9305973,174.680133
25,Public Bus 309X Queen St-Newmarket-Mangere 16/08/21,Auckland,Monday 16 August,3.30 pm - 5.00 pm,"Isolate at home for 14 days from date of last exposure. Test immediately, and on days 5 & 12 after last exposure. Call Healthline for what to do next.",20-Aug,"[{'address_components': [{'long_name': 'Auckland', 'short_name': 'Auckland', 'types': ['locality', 'political']}, {'long_name': 'Auckland', 'short_name': 'Auckland', 'types': ['administrative_area_level_1', 'political']}, {'long_name': 'New Zealand', 'short_name': 'NZ', 'types': ['country', 'political']}], 'formatted_address': 'Auckland, New Zealand', 'geometry': {'bounds': {'northeast': {'lat': -36.66060179999999, 'lng': 174.9684261}, 'southwest': {'lat': -37.0590199, 'lng': 174.443816}}, 'location': {'lat': -36.85088270000001, 'lng': 174.7644881}, 'location_type': 'APPROXIMATE', 'viewport': {'northeast': {'lat': -36.66060179999999, 'lng': 174.9684261}, 'southwest': {'lat': -37.0590199, 'lng': 174.443816}}}, 'place_id': 'ChIJ--acWvtHDW0RF5miQ2HvAAU', 'types': ['locality', 'political']}]",-36.85088270000001,174.7644881
26,Bus 942 Northcote College to Lake Road,Bus 942,Monday 16 August,3.30 pm - 3.50 pm,"Isolate at home for 14 days from date of last exposure. Test immediately, and on days 5 & 12 after last exposure. Call Healthline for what to do next.",20-Aug,"[{'address_components': [{'long_name': '942 Great Northern Road', 'short_name': '942 Great Northern Road', 'types': ['establishment', 'point_of_interest', 'transit_station']}, {'long_name': 'Sault Ste. Marie', 'short_name': 'Sault Ste. Marie', 'types': ['locality', 'political']}, {'long_name': 'Algoma District', 'short_name': 'Algoma District', 'types': ['administrative_area_level_2', 'political']}, {'long_name': 'Ontario', 'short_name': 'ON', 'types': ['administrative_area_level_1', 'political']}, {'long_name': 'Canada', 'short_name': 'CA', 'types': ['country', 'political']}, {'long_name': 'P6A 5K7', 'short_name': 'P6A 5K7', 'types': ['postal_code']}], 'formatted_address': '942 Great Northern Road, Sault Ste. Marie, ON P6A 5K7, Canada', 'geometry': {'location': {'lat': 46.55528, 'lng': -84.3196}, 'location_type': 'GEOMETRIC_CENTER', 'viewport': {'northeast': {'lat': 46.5566289802915, 'lng': -84.31825101970848}, 'southwest': {'lat': 46.5539310197085, 'lng': -84.3209489802915}}}, 'place_id': 'ChIJLcRx6aY3Nk0RfeAfks-n0L0', 'types': ['establishment', 'point_of_interest', 'transit_station']}]",46.55528,-84.3196
27,Coyle Park (Point Chevalier Beach),"Point Chevalier Road, Point Chevalier, Auckland 1022",Monday 16 August,2.00 pm - 2.45 pm,"Isolate at home for 14 days from date of last exposure. Test immediately, and on days 5 & 12 after last exposure. Call Healthline for what to do next.",19-Aug,"[{'address_components': [{'long_name': '1022', 'short_name': '1022', 'types': ['street_number']}, {'long_name': 'Point Chevalier Road', 'short_name': 'Point Chevalier Rd', 'types': ['route']}, {'long_name': 'Auckland', 'short_name': 'Auckland', 'types': ['administrative_area_level_1', 'political']}, {'long_name': 'New Zealand', 'short_name': 'NZ', 'types': ['country', 'political']}, {'long_name': '1022', 'short_name': '1022', 'types': ['postal_code']}], 'formatted_address': '1022 Point Chevalier Road, Auckland 1022, New Zealand', 'geometry': {'location': {'lat': -36.8525499, 'lng': 174.7040098}, 'location_type': 'RANGE_INTERPOLATED', 'viewport': {'northeast': {'lat': -36.8512009197085, 'lng': 174.7053587802915}, 'southwest': {'lat': -36.8538988802915, 'lng': 174.7026608197085}}}, 'place_id': 'EiYxMDIyIFBvaW50IENoZXZhbGllciBSb2FkLCBOZXcgWmVhbGFuZCIbEhkKFAoSCcmQEiBERw1tEQARIpGU2nTHEP4H', 'types': ['street_address']}]",-36.8525499,174.7040098
28,Pizza Hut Birkenhead,"3/75 Mokoia Road, Birkenhead, 0626",Monday 16 August,1.00 pm - 2.00 pm,"Isolate at home for 14 days from date of last exposure. Test immediately, and on days 5 & 12 after last exposure. Call Healthline for what to do next.",18-Aug,"[{'address_components': [{'long_name': '3', 'short_name': '3', 'types': ['subpremise']}, {'long_name': '75', 'short_name': '75', 'types': ['street_number']}, {'long_name': 'Mokoia Road', 'short_name': 'Mokoia Rd', 'types': ['route']}, {'long_name': 'Birkenhead', 'short_name': 'Birkenhead', 'types': ['political', 'sublocality', 'sublocality_level_1']}, {'long_name': 'Auckland', 'short_name': 'Auckland', 'types': ['locality', 'political']}, {'long_name': 'Auckland', 'short_name': 'Auckland', 'types': ['administrative_area_level_1', 'political']}, {'long_name': 'New Zealand', 'short_name': 'NZ', 'types': ['country', 'political']}, {'long_name': '0626', 'short_name': '0626', 'types': ['postal_code']}], 'formatted_address': '3/75 Mokoia Road, Birkenhead, Auckland 0626, New Zealand', 'geometry': {'location': {'lat': -36.8117034, 'lng': 174.7233529}, 'location_type': 'ROOFTOP', 'viewport': {'northeast': {'lat': -36.8103544197085, 'lng': 174.7247018802915}, 'southwest': {'lat': -36.8130523802915, 'lng': 174.7220039197085}}}, 'place_id': 'ChIJWVgNNvI4DW0RBxWm066lDcU', 'types': ['subpremise']}]",-36.8117034,174.7233529
29,Devonport Pharmacy Devonport,"33 Victoria Road, Devonport, Auckland 0624",Monday 16 August,2.15 pm - 2.30 pm,"Isolate at home for 14 days from date of last exposure. Test immediately, and on days 5 & 12 after last exposure. Call Healthline for what to do next.",17-Aug,"[{'address_components': [{'long_name': '33', 'short_name': '33', 'types': ['street_number']}, {'long_name': 'Victoria Road', 'short_name': 'Victoria Rd', 'types': ['route']}, {'long_name': 'Devonport', 'short_name': 'Devonport', 'types': ['political', 'sublocality', 'sublocality_level_1']}, {'long_name': 'Auckland', 'short_name': 'Auckland', 'types': ['locality', 'political']}, {'long_name': 'Auckland', 'short_name': 'Auckland', 'types': ['administrative_area_level_1', 'political']}, {'long_name': 'New Zealand', 'short_name': 'NZ', 'types': ['country', 'political']}, {'long_name': '0624', 'short_name': '0624', 'types': ['postal_code']}], 'formatted_address': '33 Victoria Road, Devonport, Auckland 0624, New Zealand', 'geometry': {'location': {'lat': -36.8310738, 'lng': 174.7971905}, 'location_type': 'ROOFTOP', 'viewport': {'northeast': {'lat': -36.8297248197085, 'lng': 174.7985394802915}, 'southwest': {'lat': -36.8324227802915, 'lng': 174.7958415197085}}}, 'place_id': 'ChIJhx3t3dw3DW0R1UlxHAv7d3g', 'plus_code': {'compound_code': '5Q9W+HV Auckland, New Zealand', 'global_code': '4VMP5Q9W+HV'}, 'types': ['street_address']}]",-36.8310738,174.7971905
30,Passion Bakery,"34 Birkdale Road, Birkdale, Auckland 0626",Monday 16 August,12.45 pm - 1.15 pm,"Isolate at home for 14 days from date of last exposure. Test immediately, and on days 5 & 12 after last exposure. Call Healthline for what to do next.",18-Aug,"[{'address_components': [{'long_name': '34', 'short_name': '34', 'types': ['street_number']}, {'long_name': 'Birkdale Road', 'short_name': 'Birkdale Rd', 'types': ['route']}, {'long_name': 'Birkdale', 'short_name': 'Birkdale', 'types': ['political', 'sublocality', 'sublocality_level_1']}, {'long_name': 'Auckland', 'short_name': 'Auckland', 'types': ['locality', 'political']}, {'long_name': 'Auckland', 'short_name': 'Auckland', 'types': ['administrative_area_level_1', 'political']}, {'long_name': 'New Zealand', 'short_name': 'NZ', 'types': ['country', 'political']}, {'long_name': '0626', 'short_name': '0626', 'types': ['postal_code']}], 'formatted_address': '34 Birkdale Road, Birkdale, Auckland 0626, New Zealand', 'geometry': {'location': {'lat': -36.8058993, 'lng': 174.7044829}, 'location_type': 'ROOFTOP', 'viewport': {'northeast': {'lat': -36.8045503197085, 'lng': 174.7058318802915}, 'southwest': {'lat': -36.8072482802915, 'lng': 174.7031339197085}}}, 'place_id': 'ChIJK1mhlsQ4DW0Rwc0QKTm9i_0', 'plus_code': {'compound_code': '5PV3+JQ Auckland, New Zealand', 'global_code': '4VMP5PV3+JQ'}, 'types': ['street_address']}]",-36.8058993,174.7044829
31,"Dress Smart, Onehunga","151 Arthur Street, Onehunga, Auckland, 1061",Monday 16 August,12.30 pm - 1.30 pm,"Isolate at home for 14 days from date of last exposure. Test immediately, and on days 5 & 12 after last exposure. Call Healthline for what to do next.",19-Aug,"[{'address_components': [{'long_name': '151', 'short_name': '151', 'types': ['street_number']}, {'long_name': 'Arthur Street', 'short_name': 'Arthur St', 'types': ['route']}, {'long_name': 'Onehunga', 'short_name': 'Onehunga', 'types': ['political', 'sublocality', 'sublocality_level_1']}, {'long_name': 'Auckland', 'short_name': 'Auckland', 'types': ['locality', 'political']}, {'long_name': 'Auckland', 'short_name': 'Auckland', 'types': ['administrative_area_level_1', 'political']}, {'long_name': 'New Zealand', 'short_name': 'NZ', 'types': ['country', 'political']}, {'long_name': '1061', 'short_name': '1061', 'types': ['postal_code']}], 'formatted_address': '151 Arthur Street, Onehunga, Auckland 1061, New Zealand', 'geometry': {'location': {'lat': -36.9207786, 'lng': 174.786318}, 'location_type': 'ROOFTOP', 'viewport': {'northeast': {'lat': -36.9194296197085, 'lng': 174.7876669802915}, 'southwest': {'lat': -36.92212758029149, 'lng': 174.7849690197085}}}, 'place_id': 'ChIJKZNCLLJIDW0RPq002wAyfi4', 'plus_code': {'compound_code': '3QHP+MG Auckland, New Zealand', 'global_code': '4VMP3QHP+MG'}, 'types': ['street_address']}]",-36.9207786,174.786318
32,Countdown Birkenhead,"Cnr Highbury Pass & Birkenhead Ave, Birkenhead, 0626",Monday 16 August,12.30 pm - 12.45 pm,"Isolate at home for 14 days from date of last exposure. Test immediately, and on days 5 & 12 after last exposure. Call Healthline for what to do next.",18-Aug,"[{'address_components': [{'long_name': 'Birkenhead Avenue & Highbury Bypass', 'short_name': 'Birkenhead Ave & Highbury Bypass', 'types': ['intersection']}, {'long_name': 'Birkenhead', 'short_name': 'Birkenhead', 'types': ['political', 'sublocality', 'sublocality_level_1']}, {'long_name': 'Auckland', 'short_name': 'Auckland', 'types': ['locality', 'political']}, {'long_name': 'Auckland', 'short_name': 'Auckland', 'types': ['administrative_area_level_1', 'political']}, {'long_name': 'New Zealand', 'short_name': 'NZ', 'types': ['country', 'political']}, {'long_name': '0626', 'short_name': '0626', 'types': ['postal_code']}], 'formatted_address': 'Birkenhead Ave & Highbury Bypass, Birkenhead, Auckland 0626, New Zealand', 'geometry': {'location': {'lat': -36.8100918, 'lng': 174.7254879}, 'location_type': 'GEOMETRIC_CENTER', 'viewport': {'northeast': {'lat': -36.80874281970849, 'lng': 174.7268368802915}, 'southwest': {'lat': -36.81144078029149, 'lng': 174.7241389197085}}}, 'place_id': 'EkhCaXJrZW5oZWFkIEF2ZSAmIEhpZ2hidXJ5IEJ5cGFzcywgQmlya2VuaGVhZCwgQXVja2xhbmQgMDYyNiwgTmV3IFplYWxhbmQiZiJkChQKEgmzzslb8TgNbRE7m4aFDNNSFRIUChIJs87JW_E4DW0RO5uGhQzTUhUaFAoSCZmP19fwOA1tEQySwlC55GvkGhQKEgmFT_Ym8jgNbRFmQzSp9JWRwSIKDco5D-oVX_4kaA', 'types': ['intersection']}]",-36.8100918,174.7254879
33,Z Harris Road Service Station,"142 Harris Road, East Tamaki, Auckland 2013",Monday 16 August,12.00 pm - 12.10 pm,"Isolate at home for 14 days from date of last exposure. Test immediately, and on days 5 & 12 after last exposure. Call Healthline for what to do next.",19-Aug,"[{'address_components': [{'long_name': '142', 'short_name': '142', 'types': ['street_number']}, {'long_name': 'Harris Road', 'short_name': 'Harris Rd', 'types': ['route']}, {'long_name': 'East Tāmaki', 'short_name': 'East Tāmaki', 'types': ['political', 'sublocality', 'sublocality_level_1']}, {'long_name': 'Auckland', 'short_name': 'Auckland', 'types': ['locality', 'political']}, {'long_name': 'Auckland', 'short_name': 'Auckland', 'types': ['administrative_area_level_1', 'political']}, {'long_name': 'New Zealand', 'short_name': 'NZ', 'types': ['country', 'political']}, {'long_name': '2013', 'short_name': '2013', 'types': ['postal_code']}], 'formatted_address': '142 Harris Road, East Tāmaki, Auckland 2013, New Zealand', 'geometry': {'bounds': {'northeast': {'lat': -36.929574, 'lng': 174.8970026}, 'southwest': {'lat': -36.9298052, 'lng': 174.8966083}}, 'location': {'lat': -36.9297117, 'lng': 174.8968091}, 'location_type': 'ROOFTOP', 'viewport': {'northeast': {'lat': -36.9283406197085, 'lng': 174.8981544302915}, 'southwest': {'lat': -36.9310385802915, 'lng': 174.8954564697085}}}, 'place_id': 'ChIJRR1NaYBLDW0RfHwdQrEYBtw', 'types': ['premise']}]",-36.9297117,174.8968091
34,Bunnings Mt Roskill,"2 Carr Road, Three Kings, Auckland, 1042",Monday 16 August,10.00 am - 10.30 am,"Isolate at home for 14 days from date of last exposure. Test immediately, and on days 5 & 12 after last exposure. Call Healthline for what to do next.",19-Aug,"[{'address_components': [{'long_name': '2', 'short_name': '2', 'types': ['street_number']}, {'long_name': 'Carr Road', 'short_name': 'Carr Rd', 'types': ['route']}, {'long_name': 'Three Kings', 'short_name': 'Three Kings', 'types': ['political', 'sublocality', 'sublocality_level_1']}, {'long_name': 'Auckland', 'short_name': 'Auckland', 'types': ['locality', 'political']}, {'long_name': 'Auckland', 'short_name': 'Auckland', 'types': ['administrative_area_level_1', 'political']}, {'long_name': 'New Zealand', 'short_name': 'NZ', 'types': ['country', 'political']}, {'long_name': '1042', 'short_name': '1042', 'types': ['postal_code']}], 'formatted_address': '2 Carr Road, Three Kings, Auckland 1042, New Zealand', 'geometry': {'location': {'lat': -36.9152881, 'lng': 174.7579245}, 'location_type': 'ROOFTOP', 'viewport': {'northeast': {'lat': -36.9139391197085, 'lng': 174.7592734802915}, 'southwest': {'lat': -36.91663708029149, 'lng': 174.7565755197085}}}, 'place_id': 'ChIJn3UudA5GDW0RaHm2TNs_Fa8', 'plus_code': {'compound_code': '3QM5+V5 Auckland, New Zealand', 'global_code': '4VMP3QM5+V5'}, 'types': ['street_address']}]",-36.9152881,174.7579245
35,Blockhouse Bay Christian Kindergarten,"76 Dundale Avenue, Blockhouse Bay, Auckland 0600",Monday 16 August,9.00 am - 3.00 pm,"Isolate at home for 14 days from date of last exposure. Test immediately, and on days 5 & 12 after last exposure. Call Healthline for what to do next.",20-Aug,"[{'address_components': [{'long_name': '76', 'short_name': '76', 'types': ['street_number']}, {'long_name': 'Dundale Avenue', 'short_name': 'Dundale Ave', 'types': ['route']}, {'long_name': 'Blockhouse Bay', 'short_name': 'Blockhouse Bay', 'types': ['political', 'sublocality', 'sublocality_level_1']}, {'long_name': 'Auckland', 'short_name': 'Auckland', 'types': ['locality', 'political']}, {'long_name': 'Auckland', 'short_name': 'Auckland', 'types': ['administrative_area_level_1', 'political']}, {'long_name': 'New Zealand', 'short_name': 'NZ', 'types': ['country', 'political']}, {'long_name': '0600', 'short_name': '0600', 'types': ['postal_code']}], 'formatted_address': '76 Dundale Avenue, Blockhouse Bay, Auckland 0600, New Zealand', 'geometry': {'bounds': {'northeast': {'lat': -36.9126719, 'lng': 174.7154625}, 'southwest': {'lat': -36.9130096, 'lng': 174.7148897}}, 'location': {'lat': -36.9128191, 'lng': 174.7151883}, 'location_type': 'ROOFTOP', 'viewport': {'northeast': {'lat': -36.9114917697085, 'lng': 174.7165250802915}, 'southwest': {'lat': -36.9141897302915, 'lng': 174.7138271197085}}}, 'place_id': 'ChIJE5af75lGDW0RuKtw9C1VxaE', 'types': ['premise']}]",-36.9128191,174.7151883
36,Avondale College,"51 Victor Street, Avondale, Auckland 1026",Monday 16 August,8.45 am - 12.00 pm,"Isolate at home for 14 days from date of last exposure. Test immediately, and on days 5 & 12 after last exposure. Call Healthline for what to do next.",18-Aug,"[{'address_components': [{'long_name': '51', 'short_name': '51', 'types': ['street_number']}, {'long_name': 'Victor Street', 'short_name': 'Victor St', 'types': ['route']}, {'long_name': 'Avondale', 'short_name': 'Avondale', 'types': ['political', 'sublocality', 'sublocality_level_1']}, {'long_name': 'Auckland', 'short_name': 'Auckland', 'types': ['locality', 'political']}, {'long_name': 'Auckland', 'short_name': 'Auckland', 'types': ['administrative_area_level_1', 'political']}, {'long_name': 'New Zealand', 'short_name': 'NZ', 'types': ['country', 'political']}, {'long_name': '1026', 'short_name': '1026', 'types': ['postal_code']}], 'formatted_address': '51 Victor Street, Avondale, Auckland 1026, New Zealand', 'geometry': {'location': {'lat': -36.8917834, 'lng': 174.6906992}, 'location_type': 'ROOFTOP', 'viewport': {'northeast': {'lat': -36.89043441970851, 'lng': 174.6920481802915}, 'southwest': {'lat': -36.8931323802915, 'lng': 174.6893502197085}}}, 'place_id': 'ChIJ6eHsI81GDW0RYljKqCt0WxU', 'plus_code': {'compound_code': '4M5R+77 Auckland, New Zealand', 'global_code': '4VMP4M5R+77'}, 'types': ['street_address']}]",-36.8917834,174.6906992
37,St Honores Bakery,"71 Mokoia Road, Birkenhead, Auckland 0626",Monday 16 August,8.20 am - 8.25 am,"Isolate at home for 14 days from date of last exposure. Test immediately, and on days 5 & 12 after last exposure. Call Healthline for what to do next.",20-Aug,"[{'address_components': [{'long_name': '71', 'short_name': '71', 'types': ['street_number']}, {'long_name': 'Mokoia Road', 'short_name': 'Mokoia Rd', 'types': ['route']}, {'long_name': 'Birkenhead', 'short_name': 'Birkenhead', 'types': ['political', 'sublocality', 'sublocality_level_1']}, {'long_name': 'Auckland', 'short_name': 'Auckland', 'types': ['locality', 'political']}, {'long_name': 'Auckland', 'short_name': 'Auckland', 'types': ['administrative_area_level_1', 'political']}, {'long_name': 'New Zealand', 'short_name': 'NZ', 'types': ['country', 'political']}, {'long_name': '0626', 'short_name': '0626', 'types': ['postal_code']}], 'formatted_address': '71 Mokoia Road, Birkenhead, Auckland 0626, New Zealand', 'geometry': {'location': {'lat': -36.8116122, 'lng': 174.7241365}, 'location_type': 'ROOFTOP', 'viewport': {'northeast': {'lat': -36.8102632197085, 'lng': 174.7254854802915}, 'southwest': {'lat': -36.8129611802915, 'lng': 174.7227875197085}}}, 'place_id': 'ChIJl9WtNPI4DW0Rn0Sj8TYqpRc', 'plus_code': {'compound_code': '5PQF+9M Auckland, New Zealand', 'global_code': '4VMP5PQF+9M'}, 'types': ['street_address']}]",-36.8116122,174.7241365
38,Countdown Birkenhead,"71 Mokoia Road, Birkenhead, Auckland 0626",Monday 16 August,8.10 am - 8.20 am,"Isolate at home for 14 days from date of last exposure. Test immediately, and on days 5 & 12 after last exposure. Call Healthline for what to do next.",20-Aug,"[{'address_components': [{'long_name': '71', 'short_name': '71', 'types': ['street_number']}, {'long_name': 'Mokoia Road', 'short_name': 'Mokoia Rd', 'types': ['route']}, {'long_name': 'Birkenhead', 'short_name': 'Birkenhead', 'types': ['political', 'sublocality', 'sublocality_level_1']}, {'long_name': 'Auckland', 'short_name': 'Auckland', 'types': ['locality', 'political']}, {'long_name': 'Auckland', 'short_name': 'Auckland', 'types': ['administrative_area_level_1', 'political']}, {'long_name': 'New Zealand', 'short_name': 'NZ', 'types': ['country', 'political']}, {'long_name': '0626', 'short_name': '0626', 'types': ['postal_code']}], 'formatted_address': '71 Mokoia Road, Birkenhead, Auckland 0626, New Zealand', 'geometry': {'location': {'lat': -36.8116122, 'lng': 174.7241365}, 'location_type': 'ROOFTOP', 'viewport': {'northeast': {'lat': -36.8102632197085, 'lng': 174.7254854802915}, 'southwest': {'lat': -36.8129611802915, 'lng': 174.7227875197085}}}, 'place_id': 'ChIJl9WtNPI4DW0Rn0Sj8TYqpRc', 'plus_code': {'compound_code': '5PQF+9M Auckland, New Zealand', 'global_code': '4VMP5PQF+9M'}, 'types': ['street_address']}]",-36.8116122,174.7241365
39,Warehouse New Lynn,"7/13 Rata Street, New Lynn, Auckland 0600",Monday 16 August,7.45 am - 8.15am,"Isolate at home for 14 days from date of last exposure. Test immediately, and on days 5 & 12 after last exposure. Call Healthline for what to do next.",18-Aug,"[{'address_components': [{'long_name': '7-13', 'short_name': '7-13', 'types': ['street_number']}, {'long_name': 'Rata Street', 'short_name': 'Rata St', 'types': ['route']}, {'long_name': 'New Lynn', 'short_name': 'New Lynn', 'types': ['political', 'sublocality', 'sublocality_level_1']}, {'long_name': 'Auckland', 'short_name': 'Auckland', 'types': ['locality', 'political']}, {'long_name': 'Auckland', 'short_name': 'Auckland', 'types': ['administrative_area_level_1', 'political']}, {'long_name': 'New Zealand', 'short_name': 'NZ', 'types': ['country', 'political']}, {'long_name': '0600', 'short_name': '0600', 'types': ['postal_code']}], 'formatted_address': '7-13 Rata Street, New Lynn, Auckland 0600, New Zealand', 'geometry': {'location': {'lat': -36.9076765, 'lng': 174.6784453}, 'location_type': 'ROOFTOP', 'viewport': {'northeast': {'lat': -36.9063275197085, 'lng': 174.6797942802915}, 'southwest': {'lat': -36.9090254802915, 'lng': 174.6770963197085}}}, 'place_id': 'ChIJJ7OFnUVBDW0RBypxZPEDDXE', 'plus_code': {'compound_code': '3MRH+W9 Auckland, New Zealand', 'global_code': '4VMP3MRH+W9'}, 'types': ['street_address']}, {'address_components': [{'long_name': '7', 'short_name': '7', 'types': ['subpremise']}, {'long_name': '13', 'short_name': '13', 'types': ['street_number']}, {'long_name': 'Rata Street', 'short_name': 'Rata St', 'types': ['route']}, {'long_name': 'New Lynn', 'short_name': 'New Lynn', 'types': ['political', 'sublocality', 'sublocality_level_1']}, {'long_name': 'Auckland', 'short_name': 'Auckland', 'types': ['locality', 'political']}, {'long_name': 'Auckland', 'short_name': 'Auckland', 'types': ['administrative_area_level_1', 'political']}, {'long_name': 'New Zealand', 'short_name': 'NZ', 'types': ['country', 'political']}, {'long_name': '0600', 'short_name': '0600', 'types': ['postal_code']}], 'formatted_address': '7/13 Rata Street, New Lynn, Auckland 0600, New Zealand', 'geometry': {'location': {'lat': -36.90768, 'lng': 174.6784371}, 'location_type': 'ROOFTOP', 'viewport': {'northeast': {'lat': -36.9063310197085, 'lng': 174.6797860802915}, 'southwest': {'lat': -36.9090289802915, 'lng': 174.6770881197085}}}, 'place_id': 'EjY3LzEzIFJhdGEgU3RyZWV0LCBOZXcgTHlubiwgQXVja2xhbmQgMDYwMCwgTmV3IFplYWxhbmQiHRobChYKFAoSCf-6doBPQQ1tEbBS2TlZBpfxEgE3', 'types': ['subpremise']}]",-36.9076765,174.6784453
40,Countdown Birkenhead,"Cnr Highbury Pass & Birkenhead Ave, Birkenhead, 0626",Monday 16 August,7.00 am - 7.15 am,"Isolate at home for 14 days from date of last exposure. Test immediately, and on days 5 & 12 after last exposure. Call Healthline for what to do next.",18-Aug,"[{'address_components': [{'long_name': 'Birkenhead Avenue & Highbury Bypass', 'short_name': 'Birkenhead Ave & Highbury Bypass', 'types': ['intersection']}, {'long_name': 'Birkenhead', 'short_name': 'Birkenhead', 'types': ['political', 'sublocality', 'sublocality_level_1']}, {'long_name': 'Auckland', 'short_name': 'Auckland', 'types': ['locality', 'political']}, {'long_name': 'Auckland', 'short_name': 'Auckland', 'types': ['administrative_area_level_1', 'political']}, {'long_name': 'New Zealand', 'short_name': 'NZ', 'types': ['country', 'political']}, {'long_name': '0626', 'short_name': '0626', 'types': ['postal_code']}], 'formatted_address': 'Birkenhead Ave & Highbury Bypass, Birkenhead, Auckland 0626, New Zealand', 'geometry': {'location': {'lat': -36.8100918, 'lng': 174.7254879}, 'location_type': 'GEOMETRIC_CENTER', 'viewport': {'northeast': {'lat': -36.80874281970849, 'lng': 174.7268368802915}, 'southwest': {'lat': -36.81144078029149, 'lng': 174.7241389197085}}}, 'place_id': 'EkhCaXJrZW5oZWFkIEF2ZSAmIEhpZ2hidXJ5IEJ5cGFzcywgQmlya2VuaGVhZCwgQXVja2xhbmQgMDYyNiwgTmV3IFplYWxhbmQiZiJkChQKEgmzzslb8TgNbRE7m4aFDNNSFRIUChIJs87JW_E4DW0RO5uGhQzTUhUaFAoSCZmP19fwOA1tEQySwlC55GvkGhQKEgmFT_Ym8jgNbRFmQzSp9JWRwSIKDco5D-oVX_4kaA', 'types': ['intersection']}]",-36.8100918,174.7254879
41,"Assembly of God (AOG) Church, Mangere","33 Andrew Baxter Drive, Mangare, Auckland, 2022",Sunday 15 August,Times TBC,Isolate at home. An active investigation is underway to confirm times. Please await further advice - we will update this as soon as possible.,20-Aug,"[{'address_components': [{'long_name': '33', 'short_name': '33', 'types': ['street_number']}, {'long_name': 'Andrew Baxter Drive', 'short_name': 'Andrew Baxter Dr', 'types': ['route']}, {'long_name': 'Māngere', 'short_name': 'Māngere', 'types': ['political', 'sublocality', 'sublocality_level_1']}, {'long_name': 'Auckland', 'short_name': 'Auckland', 'types': ['locality', 'political']}, {'long_name': 'Auckland', 'short_name': 'Auckland', 'types': ['administrative_area_level_1', 'political']}, {'long_name': 'New Zealand', 'short_name': 'NZ', 'types': ['country', 'political']}, {'long_name': '2022', 'short_name': '2022', 'types': ['postal_code']}], 'formatted_address': '33 Andrew Baxter Drive, Māngere, Auckland 2022, New Zealand', 'geometry': {'location': {'lat': -36.9762178, 'lng': 174.7792346}, 'location_type': 'ROOFTOP', 'viewport': {'northeast': {'lat': -36.9748688197085, 'lng': 174.7805835802915}, 'southwest': {'lat': -36.9775667802915, 'lng': 174.7778856197085}}}, 'place_id': 'ChIJ6cxXMYRPDW0RQDZPBgHborY', 'plus_code': {'compound_code': '2QFH+GM Auckland, New Zealand', 'global_code': '4VMP2QFH+GM'}, 'types': ['street_address']}]",-36.9762178,174.7792346
42,BP Northcote,"50 Northcote Road, Northcote, Auckland 0627",Sunday 15 August,7.15 pm - 7.30 pm,"Isolate at home for 14 days from date of last exposure. Test immediately, and on days 5 & 12 after last exposure. Call Healthline for what to do next.",18-Aug,"[{'address_components': [{'long_name': '50', 'short_name': '50', 'types': ['street_number']}, {'long_name': 'Northcote Road', 'short_name': 'Northcote Rd', 'types': ['route']}, {'long_name': 'Northcote', 'short_name': 'Northcote', 'types': ['political', 'sublocality', 'sublocality_level_1']}, {'long_name': 'Auckland', 'short_name': 'Auckland', 'types': ['locality', 'political']}, {'long_name': 'Auckland', 'short_name': 'Auckland', 'types': ['administrative_area_level_1', 'political']}, {'long_name': 'New Zealand', 'short_name': 'NZ', 'types': ['country', 'political']}, {'long_name': '0627', 'short_name': '0627', 'types': ['postal_code']}], 'formatted_address': '50 Northcote Road, Northcote, Auckland 0627, New Zealand', 'geometry': {'location': {'lat': -36.7936316, 'lng': 174.7464305}, 'location_type': 'ROOFTOP', 'viewport': {'northeast': {'lat': -36.79228261970851, 'lng': 174.7477794802915}, 'southwest': {'lat': -36.79498058029151, 'lng': 174.7450815197085}}}, 'place_id': 'ChIJuQImb7M5DW0RyR2lJ7GLY24', 'plus_code': {'compound_code': '6P4W+GH Auckland, New Zealand', 'global_code': '4VMP6P4W+GH'}, 'types': ['street_address']}]",-36.7936316,174.7464305
43,"Countdown, Lynfield","570 Hillsborough Road, Mount Roskill, 1041",Sunday 15 August,8.00 pm - 8.15 pm,"Isolate at home for 14 days from date of last exposure. Test immediately, and on days 5 & 12 after last exposure. Call Healthline for what to do next.",18-Aug,"[{'address_components': [{'long_name': '570', 'short_name': '570', 'types': ['street_number']}, {'long_name': 'Hillsborough Road', 'short_name': 'Hillsborough Rd', 'types': ['route']}, {'long_name': 'Mount Roskill', 'short_name': 'Mount Roskill', 'types': ['political', 'sublocality', 'sublocality_level_1']}, {'long_name': 'Auckland', 'short_name': 'Auckland', 'types': ['locality', 'political']}, {'long_name': 'Auckland', 'short_name': 'Auckland', 'types': ['administrative_area_level_1', 'political']}, {'long_name': 'New Zealand', 'short_name': 'NZ', 'types': ['country', 'political']}, {'long_name': '1041', 'short_name': '1041', 'types': ['postal_code']}], 'formatted_address': '570 Hillsborough Road, Mount Roskill, Auckland 1041, New Zealand', 'geometry': {'location': {'lat': -36.9258726, 'lng': 174.7227564}, 'location_type': 'ROOFTOP', 'viewport': {'northeast': {'lat': -36.9245236197085, 'lng': 174.7241053802915}, 'southwest': {'lat': -36.9272215802915, 'lng': 174.7214074197085}}}, 'place_id': 'ChIJ68B29ihEDW0R7torKwVWof0', 'plus_code': {'compound_code': '3PFF+M4 Auckland, New Zealand', 'global_code': '4VMP3PFF+M4'}, 'types': ['street_address']}]",-36.9258726,174.7227564
44,McDonalds Auckland Airport,"12 Leonard Isitt Drive, Auckland Airport, Auckland 2022",Sunday 15 August,8.00 pm - 11.30 pm,"Isolate at home for 14 days from date of last exposure. Test immediately, and on days 5 & 12 after last exposure. Call Healthline for what to do next.",20-Aug,"[{'address_components': [{'long_name': '12', 'short_name': '12', 'types': ['street_number']}, {'long_name': 'Leonard Isitt Drive', 'short_name': 'Leonard Isitt Dr', 'types': ['route']}, {'long_name': 'Auckland Airport', 'short_name': 'Auckland Airport', 'types': ['political', 'sublocality', 'sublocality_level_1']}, {'long_name': 'Auckland', 'short_name': 'Auckland', 'types': ['locality', 'political']}, {'long_name': 'Auckland', 'short_name': 'Auckland', 'types': ['administrative_area_level_1', 'political']}, {'long_name': 'New Zealand', 'short_name': 'NZ', 'types': ['country', 'political']}, {'long_name': '2022', 'short_name': '2022', 'types': ['postal_code']}], 'formatted_address': '12 Leonard Isitt Drive, Auckland Airport, Auckland 2022, New Zealand', 'geometry': {'location': {'lat': -37.0007672, 'lng': 174.7908222}, 'location_type': 'ROOFTOP', 'viewport': {'northeast': {'lat': -36.9994182197085, 'lng': 174.7921711802915}, 'southwest': {'lat': -37.0021161802915, 'lng': 174.7894732197085}}}, 'place_id': 'ChIJs39vmehPDW0RSmzPIlyGviw', 'plus_code': {'compound_code': 'XQXR+M8 Auckland, New Zealand', 'global_code': '4VJPXQXR+M8'}, 'types': ['street_address']}]",-37.0007672,174.7908222
45,Church of Christ Mt Roskill,"361 Mount Albert Road, Mount Roskill, Auckland, 1041",Sunday 15 August,7.00 pm - 9.00 pm,"Isolate at home for 14 days from date of last exposure. Test immediately, and on days 5 & 12 after last exposure. Call Healthline for what to do next.",19-Aug,"[{'address_components': [{'long_name': '361', 'short_name': '361', 'types': ['street_number']}, {'long_name': 'Mount Albert Road', 'short_name': 'Mount Albert Rd', 'types': ['route']}, {'long_name': 'Mount Roskill', 'short_name': 'Mount Roskill', 'types': ['political', 'sublocality', 'sublocality_level_1']}, {'long_name': 'Auckland', 'short_name': 'Auckland', 'types': ['locality', 'political']}, {'long_name': 'Auckland', 'short_name': 'Auckland', 'types': ['administrative_area_level_1', 'political']}, {'long_name': 'New Zealand', 'short_name': 'NZ', 'types': ['country', 'political']}, {'long_name': '1041', 'short_name': '1041', 'types': ['postal_code']}], 'formatted_address': '361 Mount Albert Road, Mount Roskill, Auckland 1041, New Zealand', 'geometry': {'location': {'lat': -36.9045793, 'lng': 174.7410793}, 'location_type': 'ROOFTOP', 'viewport': {'northeast': {'lat': -36.90323031970851, 'lng': 174.7424282802915}, 'southwest': {'lat': -36.9059282802915, 'lng': 174.7397303197085}}}, 'place_id': 'ChIJeVQ0z2dGDW0RfoOSZBSJhCE', 'plus_code': {'compound_code': '3PWR+5C Auckland, New Zealand', 'global_code': '4VMP3PWR+5C'}, 'types': ['street_address']}]",-36.9045793,174.7410793
46,KFC Takapuna,"1 Taharoto Road, Takapuna, Auckland 0622",Sunday 15 August,5.50 pm - 6.30 pm,"Isolate at home for 14 days from date of last exposure. Test immediately, and on days 5 & 12 after last exposure. Call Healthline for what to do next.",19-Aug,"[{'address_components': [{'long_name': '1', 'short_name': '1', 'types': ['street_number']}, {'long_name': 'Taharoto Road', 'short_name': 'Taharoto Rd', 'types': ['route']}, {'long_name': 'Takapuna', 'short_name': 'Takapuna', 'types': ['political', 'sublocality', 'sublocality_level_1']}, {'long_name': 'Auckland', 'short_name': 'Auckland', 'types': ['locality', 'political']}, {'long_name': 'Auckland', 'short_name': 'Auckland', 'types': ['administrative_area_level_1', 'political']}, {'long_name': 'New Zealand', 'short_name': 'NZ', 'types': ['country', 'political']}, {'long_name': '0622', 'short_name': '0622', 'types': ['postal_code']}], 'formatted_address': '1 Taharoto Road, Takapuna, Auckland 0622, New Zealand', 'geometry': {'bounds': {'northeast': {'lat': -36.78942900000001, 'lng': 174.7619521}, 'southwest': {'lat': -36.7896293, 'lng': 174.7616645}}, 'location': {'lat': -36.7895472, 'lng': 174.7618103}, 'location_type': 'ROOFTOP', 'viewport': {'northeast': {'lat': -36.7881801697085, 'lng': 174.7631572802915}, 'southwest': {'lat': -36.7908781302915, 'lng': 174.7604593197085}}}, 'place_id': 'ChIJe5NFFM45DW0R8sKNisQcksk', 'types': ['premise']}]",-36.7895472,174.7618103
47,Laundromatic - Chartwell,"27 Chartwell Avenue, Glenfield, 0629",Sunday 15 August,5.25 pm - 5.29 pm,"Isolate at home for 14 days from date of last exposure. Test immediately, and on days 5 & 12 after last exposure. Call Healthline for what to do next.",19-Aug,"[{'address_components': [{'long_name': '27', 'short_name': '27', 'types': ['street_number']}, {'long_name': 'Chartwell Avenue', 'short_name': 'Chartwell Ave', 'types': ['route']}, {'long_name': 'Glenfield', 'short_name': 'Glenfield', 'types': ['political', 'sublocality', 'sublocality_level_1']}, {'long_name': 'Auckland', 'short_name': 'Auckland', 'types': ['locality', 'political']}, {'long_name': 'Auckland', 'short_name': 'Auckland', 'types': ['administrative_area_level_1', 'political']}, {'long_name': 'New Zealand', 'short_name': 'NZ', 'types': ['country', 'political']}, {'long_name': '0629', 'short_name': '0629', 'types': ['postal_code']}], 'formatted_address': '27 Chartwell Avenue, Glenfield, Auckland 0629, New Zealand', 'geometry': {'location': {'lat': -36.78331740000001, 'lng': 174.731682}, 'location_type': 'ROOFTOP', 'viewport': {'northeast': {'lat': -36.78196841970851, 'lng': 174.7330309802915}, 'southwest': {'lat': -36.78466638029151, 'lng': 174.7303330197085}}}, 'place_id': 'ChIJ-4fS-ac5DW0RHIZpPOrT4AI', 'plus_code': {'compound_code': '6P8J+MM Auckland, New Zealand', 'global_code': '4VMP6P8J+MM'}, 'types': ['street_address']}]",-36.78331740000001,174.731682
48,Bus 95C Britomart station to Glenfield -,Bus 95C,Sunday 15 August,4.20 pm - 5.00 pm,"Isolate at home for 14 days from date of last exposure. Test immediately, and on days 5 & 12 after last exposure. Call Healthline for what to do next.",20-Aug,[],,
49,Britomart Bus Station,"8-12 Queen Street, Auckland Central, Auckland 1010",Sunday 15 August,4.10 - 4.20 pm,"Isolate at home for 14 days from date of last exposure. Test immediately, and on days 5 & 12 after last exposure. Call Healthline for what to do next.",20-Aug,"[{'address_components': [{'long_name': '8', 'short_name': '8', 'types': ['street_number']}, {'long_name': 'Queen Street', 'short_name': 'Queen St', 'types': ['route']}, {'long_name': 'Auckland', 'short_name': 'Auckland', 'types': ['administrative_area_level_1', 'political']}, {'long_name': 'New Zealand', 'short_name': 'NZ', 'types': ['country', 'political']}, {'long_name': '0627', 'short_name': '0627', 'types': ['postal_code']}], 'formatted_address': '8 Queen Street, Auckland 0627, New Zealand', 'geometry': {'location': {'lat': -36.8255498, 'lng': 174.7478806}, 'location_type': 'RANGE_INTERPOLATED', 'viewport': {'northeast': {'lat': -36.82420081970849, 'lng': 174.7492295802915}, 'southwest': {'lat': -36.82689878029149, 'lng': 174.7465316197085}}}, 'place_id': 'Ehs4IFF1ZWVuIFN0cmVldCwgTmV3IFplYWxhbmQiGhIYChQKEgkZHgPObTgNbRFlAB-W1heoEBAI', 'types': ['street_address']}]",-36.8255498,174.7478806
50,"Movie Monterey, Takapuna","32 Anzac Street, Takapuna, Auckland 0622",Sunday 15 August,3.36 pm - 5.45 pm,"Isolate at home for 14 days from date of last exposure. Test immediately, and on days 5 & 12 after last exposure. Call Healthline for what to do next.",19-Aug,"[{'address_components': [{'long_name': '32', 'short_name': '32', 'types': ['street_number']}, {'long_name': 'Anzac Street', 'short_name': 'Anzac St', 'types': ['route']}, {'long_name': 'Takapuna', 'short_name': 'Takapuna', 'types': ['political', 'sublocality', 'sublocality_level_1']}, {'long_name': 'Auckland', 'short_name': 'Auckland', 'types': ['locality', 'political']}, {'long_name': 'Auckland', 'short_name': 'Auckland', 'types': ['administrative_area_level_1', 'political']}, {'long_name': 'New Zealand', 'short_name': 'NZ', 'types': ['country', 'political']}, {'long_name': '0622', 'short_name': '0622', 'types': ['postal_code']}], 'formatted_address': '32 Anzac Street, Takapuna, Auckland 0622, New Zealand', 'geometry': {'location': {'lat': -36.7865054, 'lng': 174.7719237}, 'location_type': 'ROOFTOP', 'viewport': {'northeast': {'lat': -36.7851564197085, 'lng': 174.7732726802915}, 'southwest': {'lat': -36.7878543802915, 'lng': 174.7705747197085}}}, 'place_id': 'ChIJLectk9c5DW0RgEpWhI0ewTY', 'plus_code': {'compound_code': '6Q7C+9Q Auckland, New Zealand', 'global_code': '4VMP6Q7C+9Q'}, 'types': ['street_address']}]",-36.7865054,174.7719237
51,Countdown Takapuna,"10 Barrys Point Road, Takapuna, Auckland 0622",Sunday 15 August,3.20 pm - 3.30 pm,"Isolate at home for 14 days from date of last exposure. Test immediately, and on days 5 & 12 after last exposure. Call Healthline for what to do next.",19-Aug,"[{'address_components': [{'long_name': '10', 'short_name': '10', 'types': ['street_number']}, {'long_name': 'Barrys Point Road', 'short_name': 'Barrys Point Rd', 'types': ['route']}, {'long_name': 'Takapuna', 'short_name': 'Takapuna', 'types': ['political', 'sublocality', 'sublocality_level_1']}, {'long_name': 'Auckland', 'short_name': 'Auckland', 'types': ['locality', 'political']}, {'long_name': 'Auckland', 'short_name': 'Auckland', 'types': ['administrative_area_level_1', 'political']}, {'long_name': 'New Zealand', 'short_name': 'NZ', 'types': ['country', 'political']}, {'long_name': '0622', 'short_name': '0622', 'types': ['postal_code']}], 'formatted_address': '10 Barrys Point Road, Takapuna, Auckland 0622, New Zealand', 'geometry': {'location': {'lat': -36.7915196, 'lng': 174.7652356}, 'location_type': 'ROOFTOP', 'viewport': {'northeast': {'lat': -36.7901706197085, 'lng': 174.7665845802915}, 'southwest': {'lat': -36.7928685802915, 'lng': 174.7638866197085}}}, 'place_id': 'ChIJg87pLNI5DW0R9YXcEzvx0ZA', 'plus_code': {'compound_code': '6Q58+93 Auckland, New Zealand', 'global_code': '4VMP6Q58+93'}, 'types': ['street_address']}]",-36.7915196,174.7652356
52,Sunday school Church of Christ NZ Mount Roskill,"361 Mount Albert Road, Mount Roskill, Auckland 1041",Sunday 15 August,2.30 pm - 3.30 pm,"Isolate at home for 14 days from date of last exposure. Test immediately, and on days 5 & 12 after last exposure. Call Healthline for what to do next.",20-Aug,"[{'address_components': [{'long_name': '361', 'short_name': '361', 'types': ['street_number']}, {'long_name': 'Mount Albert Road', 'short_name': 'Mount Albert Rd', 'types': ['route']}, {'long_name': 'Mount Roskill', 'short_name': 'Mount Roskill', 'types': ['political', 'sublocality', 'sublocality_level_1']}, {'long_name': 'Auckland', 'short_name': 'Auckland', 'types': ['locality', 'political']}, {'long_name': 'Auckland', 'short_name': 'Auckland', 'types': ['administrative_area_level_1', 'political']}, {'long_name': 'New Zealand', 'short_name': 'NZ', 'types': ['country', 'political']}, {'long_name': '1041', 'short_name': '1041', 'types': ['postal_code']}], 'formatted_address': '361 Mount Albert Road, Mount Roskill, Auckland 1041, New Zealand', 'geometry': {'location': {'lat': -36.9045793, 'lng': 174.7410793}, 'location_type': 'ROOFTOP', 'viewport': {'northeast': {'lat': -36.90323031970851, 'lng': 174.7424282802915}, 'southwest': {'lat': -36.9059282802915, 'lng': 174.7397303197085}}}, 'place_id': 'ChIJeVQ0z2dGDW0RfoOSZBSJhCE', 'plus_code': {'compound_code': '3PWR+5C Auckland, New Zealand', 'global_code': '4VMP3PWR+5C'}, 'types': ['street_address']}]",-36.9045793,174.7410793
53,Giga Net Cafe,"L2 65 Wakefield St, Auckland CBD, Auckland 1010",Sunday 15 August,2.00 pm - 4.00 pm,"Isolate at home for 14 days from date of last exposure. Test immediately, and on days 5 & 12 after last exposure. Call Healthline for what to do next.",20-Aug,"[{'address_components': [{'long_name': 'l2', 'short_name': 'l2', 'types': ['subpremise']}, {'long_name': '65', 'short_name': '65', 'types': ['street_number']}, {'long_name': 'Wakefield Street', 'short_name': 'Wakefield St', 'types': ['route']}, {'long_name': 'Auckland CBD', 'short_name': 'Auckland CBD', 'types': ['political', 'sublocality', 'sublocality_level_1']}, {'long_name': 'Auckland', 'short_name': 'Auckland', 'types': ['locality', 'political']}, {'long_name': 'Auckland', 'short_name': 'Auckland', 'types': ['administrative_area_level_1', 'political']}, {'long_name': 'New Zealand', 'short_name': 'NZ', 'types': ['country', 'political']}, {'long_name': '1010', 'short_name': '1010', 'types': ['postal_code']}], 'formatted_address': 'l2/65 Wakefield Street, Auckland CBD, Auckland 1010, New Zealand', 'geometry': {'location': {'lat': -36.8546654, 'lng': 174.7652321}, 'location_type': 'ROOFTOP', 'viewport': {'northeast': {'lat': -36.8533164197085, 'lng': 174.7665810802915}, 'southwest': {'lat': -36.8560143802915, 'lng': 174.7638831197085}}}, 'place_id': 'EkBsMi82NSBXYWtlZmllbGQgU3RyZWV0LCBBdWNrbGFuZCBDQkQsIEF1Y2tsYW5kIDEwMTAsIE5ldyBaZWFsYW5kIh4aHAoWChQKEgmHCjzS5UcNbRHskOH-APo59BICbDI', 'types': ['subpremise']}]",-36.8546654,174.7652321
54,"Manukau Memorial Gardens, Manukau","361 Puhinui Road, Wiri, Auckland, 2025",Sunday 15 August,1.30 pm - 2.30 pm,"Isolate at home for 14 days from date of last exposure. Test immediately, and on days 5 & 12 after last exposure. Call Healthline for what to do next.",19-Aug,"[{'address_components': [{'long_name': '361', 'short_name': '361', 'types': ['street_number']}, {'long_name': 'Puhinui Road', 'short_name': 'Puhinui Rd', 'types': ['route']}, {'long_name': 'Wiri', 'short_name': 'Wiri', 'types': ['political', 'sublocality', 'sublocality_level_1']}, {'long_name': 'Auckland', 'short_name': 'Auckland', 'types': ['locality', 'political']}, {'long_name': 'Auckland', 'short_name': 'Auckland', 'types': ['administrative_area_level_1', 'political']}, {'long_name': 'New Zealand', 'short_name': 'NZ', 'types': ['country', 'political']}, {'long_name': '2025', 'short_name': '2025', 'types': ['postal_code']}], 'formatted_address': '361 Puhinui Road, Wiri, Auckland 2025, New Zealand', 'geometry': {'location': {'lat': -36.995386, 'lng': 174.8373736}, 'location_type': 'ROOFTOP', 'viewport': {'northeast': {'lat': -36.99403701970849, 'lng': 174.8387225802915}, 'southwest': {'lat': -36.99673498029149, 'lng': 174.8360246197085}}}, 'place_id': 'ChIJy4rSoRVODW0RJqFyLRFLPXk', 'plus_code': {'compound_code': '2R3P+RW Auckland, New Zealand', 'global_code': '4VMP2R3P+RW'}, 'types': ['street_address']}]",-36.995386,174.8373736
55,The Pumphouse Theatre,"2A Manurere Avenue, Takapuna, 0622",Sunday 15 August,1.30 pm - 7.00 pm,"Isolate at home for 14 days from date of last exposure. Test immediately, and on days 5 & 12 after last exposure. Call Healthline for what to do next.",18-Aug,"[{'address_components': [{'long_name': '2a', 'short_name': '2a', 'types': ['street_number']}, {'long_name': 'Manurere Avenue', 'short_name': 'Manurere Ave', 'types': ['route']}, {'long_name': 'Takapuna', 'short_name': 'Takapuna', 'types': ['political', 'sublocality', 'sublocality_level_1']}, {'long_name': 'Auckland', 'short_name': 'Auckland', 'types': ['locality', 'political']}, {'long_name': 'Auckland', 'short_name': 'Auckland', 'types': ['administrative_area_level_1', 'political']}, {'long_name': 'New Zealand', 'short_name': 'NZ', 'types': ['country', 'political']}, {'long_name': '0622', 'short_name': '0622', 'types': ['postal_code']}], 'formatted_address': '2a Manurere Avenue, Takapuna, Auckland 0622, New Zealand', 'geometry': {'bounds': {'northeast': {'lat': -36.7854086, 'lng': 174.7675982}, 'southwest': {'lat': -36.7856102, 'lng': 174.7673578}}, 'location': {'lat': -36.7854962, 'lng': 174.7675003}, 'location_type': 'ROOFTOP', 'viewport': {'northeast': {'lat': -36.7841604197085, 'lng': 174.7688269802915}, 'southwest': {'lat': -36.7868583802915, 'lng': 174.7661290197085}}}, 'place_id': 'ChIJM_b7B9o5DW0Re4AwK5yhaHs', 'types': ['premise']}]",-36.7854962,174.7675003
56,Birkenhead Superette & Lotto,"43 Birkenhead Avenue, Birkenhead, Auckland 0626",Sunday 15 August,1.00 pm - 2.00 pm,"Isolate at home for 14 days from date of last exposure. Test immediately, and on days 5 & 12 after last exposure. Call Healthline for what to do next.",20-Aug,"[{'address_components': [{'long_name': '43', 'short_name': '43', 'types': ['street_number']}, {'long_name': 'Birkenhead Avenue', 'short_name': 'Birkenhead Ave', 'types': ['route']}, {'long_name': 'Birkenhead', 'short_name': 'Birkenhead', 'types': ['political', 'sublocality', 'sublocality_level_1']}, {'long_name': 'Auckland', 'short_name': 'Auckland', 'types': ['locality', 'political']}, {'long_name': 'Auckland', 'short_name': 'Auckland', 'types': ['administrative_area_level_1', 'political']}, {'long_name': 'New Zealand', 'short_name': 'NZ', 'types': ['country', 'political']}, {'long_name': '0626', 'short_name': '0626', 'types': ['postal_code']}], 'formatted_address': '43 Birkenhead Avenue, Birkenhead, Auckland 0626, New Zealand', 'geometry': {'location': {'lat': -36.8112721, 'lng': 174.7261553}, 'location_type': 'ROOFTOP', 'viewport': {'northeast': {'lat': -36.8099231197085, 'lng': 174.7275042802915}, 'southwest': {'lat': -36.81262108029149, 'lng': 174.7248063197085}}}, 'place_id': 'ChIJ8fpN9vM4DW0RRvdT4nvfffc', 'plus_code': {'compound_code': '5PQG+FF Auckland, New Zealand', 'global_code': '4VMP5PQG+FF'}, 'types': ['street_address']}]",-36.8112721,174.7261553
57,Glenfield Mall / Katsubi Japanese,"Glenfield Road & Downing Street, Glenfield, 0629",Sunday 15 August,1.00 pm - 2.00 pm,"Isolate at home for 14 days from date of last exposure. Test immediately, and on days 5 & 12 after last exposure. Call Healthline for what to do next.",18-Aug,"[{'address_components': [{'long_name': 'Glenfield Road & Downing Street', 'short_name': 'Glenfield Rd & Downing St', 'types': ['intersection']}, {'long_name': 'Glenfield', 'short_name': 'Glenfield', 'types': ['political', 'sublocality', 'sublocality_level_1']}, {'long_name': 'Auckland', 'short_name': 'Auckland', 'types': ['locality', 'political']}, {'long_name': 'Auckland', 'short_name': 'Auckland', 'types': ['administrative_area_level_1', 'political']}, {'long_name': 'New Zealand', 'short_name': 'NZ', 'types': ['country', 'political']}, {'long_name': '0629', 'short_name': '0629', 'types': ['postal_code']}], 'formatted_address': 'Glenfield Rd & Downing St, Glenfield, Auckland 0629, New Zealand', 'geometry': {'location': {'lat': -36.783506, 'lng': 174.7214194}, 'location_type': 'GEOMETRIC_CENTER', 'viewport': {'northeast': {'lat': -36.7821570197085, 'lng': 174.7227683802915}, 'southwest': {'lat': -36.7848549802915, 'lng': 174.7200704197085}}}, 'place_id': 'EkBHbGVuZmllbGQgUmQgJiBEb3duaW5nIFN0LCBHbGVuZmllbGQsIEF1Y2tsYW5kIDA2MjksIE5ldyBaZWFsYW5kImYiZAoUChIJT2ZV_w85DW0RLge7AaA43w8SFAoSCU9mVf8POQ1tES4HuwGgON8PGhQKEgmB0FpEBTkNbREoVkRY82m1nhoUChIJhzB4gg85DW0RsRbvtIwvkwIiCg1MSBPqFXJfJGg', 'types': ['intersection']}]",-36.783506,174.7214194
58,Latin Market near La Pachamama,"Near 179a Archers Road, Glenfield, 0629",Sunday 15 August,12.30 pm - 12.45 pm,"Isolate at home for 14 days from date of last exposure. Test immediately, and on days 5 & 12 after last exposure. Call Healthline for what to do next.",18-Aug,"[{'address_components': [{'long_name': '179A', 'short_name': '179A', 'types': ['street_number']}, {'long_name': 'Archers Road', 'short_name': 'Archers Rd', 'types': ['route']}, {'long_name': 'Hillcrest', 'short_name': 'Hillcrest', 'types': ['political', 'sublocality', 'sublocality_level_1']}, {'long_name': 'Auckland', 'short_name': 'Auckland', 'types': ['locality', 'political']}, {'long_name': 'Auckland', 'short_name': 'Auckland', 'types': ['administrative_area_level_1', 'political']}, {'long_name': 'New Zealand', 'short_name': 'NZ', 'types': ['country', 'political']}, {'long_name': '0629', 'short_name': '0629', 'types': ['postal_code']}], 'formatted_address': '179A Archers Road, Hillcrest, Auckland 0629, New Zealand', 'geometry': {'location': {'lat': -36.78234330000001, 'lng': 174.7376403}, 'location_type': 'ROOFTOP', 'viewport': {'northeast': {'lat': -36.78099431970851, 'lng': 174.7389892802915}, 'southwest': {'lat': -36.78369228029151, 'lng': 174.7362913197085}}}, 'place_id': 'ChIJYZVL26U5DW0Rgpd8fYuHzqk', 'plus_code': {'compound_code': '6P9Q+33 Auckland, New Zealand', 'global_code': '4VMP6P9Q+33'}, 'types': ['street_address']}]",-36.78234330000001,174.7376403
59,Elliot Stables,"1/41 Elliott Street, Auckland Central, 1010",Sunday 15 August,12.10 pm - 1.00 pm,"Isolate at home for 14 days from date of last exposure. Test immediately, and on days 5 & 12 after last exposure. Call Healthline for what to do next.",18-Aug,"[{'address_components': [{'long_name': '1', 'short_name': '1', 'types': ['subpremise']}, {'long_name': '41', 'short_name': '41', 'types': ['street_number']}, {'long_name': 'Elliott Street', 'short_name': 'Elliott St', 'types': ['route']}, {'long_name': 'Auckland CBD', 'short_name': 'Auckland CBD', 'types': ['political', 'sublocality', 'sublocality_level_1']}, {'long_name': 'Auckland', 'short_name': 'Auckland', 'types': ['locality', 'political']}, {'long_name': 'Auckland', 'short_name': 'Auckland', 'types': ['administrative_area_level_1', 'political']}, {'long_name': 'New Zealand', 'short_name': 'NZ', 'types': ['country', 'political']}, {'long_name': '1010', 'short_name': '1010', 'types': ['postal_code']}], 'formatted_address': '1/41 Elliott Street, Auckland CBD, Auckland 1010, New Zealand', 'geometry': {'location': {'lat': -36.8502747, 'lng': 174.7633947}, 'location_type': 'ROOFTOP', 'viewport': {'northeast': {'lat': -36.8489257197085, 'lng': 174.7647436802915}, 'southwest': {'lat': -36.8516236802915, 'lng': 174.7620457197085}}}, 'place_id': 'Ej0xLzQxIEVsbGlvdHQgU3RyZWV0LCBBdWNrbGFuZCBDQkQsIEF1Y2tsYW5kIDEwMTAsIE5ldyBaZWFsYW5kIh0aGwoWChQKEgmZOJxR5UcNbREEicT2VUdMexIBMQ', 'types': ['subpremise']}]",-36.8502747,174.7633947
60,McDonald's Glenfield,"Cnr Glenfield & Kaipatiki Rd, Glenfield, 0629",Sunday 15 August,11.15am - 11.45 am,"Isolate at home for 14 days from date of last exposure. Test immediately, and on days 5 & 12 after last exposure. Call Healthline for what to do next.",19-Aug,"[{'address_components': [{'long_name': 'Glenfield Road & Kaipatiki Road', 'short_name': 'Glenfield Rd & Kaipatiki Rd', 'types': ['intersection']}, {'long_name': 'Glenfield', 'short_name': 'Glenfield', 'types': ['political', 'sublocality', 'sublocality_level_1']}, {'long_name': 'Auckland', 'short_name': 'Auckland', 'types': ['locality', 'political']}, {'long_name': 'Auckland', 'short_name': 'Auckland', 'types': ['administrative_area_level_1', 'political']}, {'long_name': 'New Zealand', 'short_name': 'NZ', 'types': ['country', 'political']}, {'long_name': '0629', 'short_name': '0629', 'types': ['postal_code']}], 'formatted_address': 'Glenfield Rd & Kaipatiki Rd, Glenfield, Auckland 0629, New Zealand', 'geometry': {'location': {'lat': -36.7820242, 'lng': 174.7208992}, 'location_type': 'GEOMETRIC_CENTER', 'viewport': {'northeast': {'lat': -36.7806752197085, 'lng': 174.7222481802915}, 'southwest': {'lat': -36.7833731802915, 'lng': 174.7195502197085}}}, 'place_id': 'EkJHbGVuZmllbGQgUmQgJiBLYWlwYXRpa2kgUmQsIEdsZW5maWVsZCwgQXVja2xhbmQgMDYyOSwgTmV3IFplYWxhbmQiZiJkChQKEgnrOr4hEDkNbRF6tFdcBZDA_RIUChIJ6zq-IRA5DW0RerRXXAWQwP0aFAoSCYHQWkQFOQ1tEShWRFjzabWeGhQKEgm_jXeMFzkNbRGNF0D4rMOR2yIKDS6CE-oVIEskaA', 'types': ['intersection']}]",-36.7820242,174.7208992
61,Pak n Save Wairau,"30-60 Wairau Road, Glenfield, 0627",Sunday 15 August,11.00 am - 12.00 pm,"Isolate at home for 14 days from date of last exposure. Test immediately, and on days 5 & 12 after last exposure. Call Healthline for what to do next.",18-Aug,"[{'address_components': [{'long_name': '30', 'short_name': '30', 'types': ['street_number']}, {'long_name': 'Wairau Road', 'short_name': 'Wairau Rd', 'types': ['route']}, {'long_name': 'Wairau Valley', 'short_name': 'Wairau Valley', 'types': ['political', 'sublocality', 'sublocality_level_1']}, {'long_name': 'Auckland', 'short_name': 'Auckland', 'types': ['locality', 'political']}, {'long_name': 'Auckland', 'short_name': 'Auckland', 'types': ['administrative_area_level_1', 'political']}, {'long_name': 'New Zealand', 'short_name': 'NZ', 'types': ['country', 'political']}, {'long_name': '0627', 'short_name': '0627', 'types': ['postal_code']}], 'formatted_address': '30 Wairau Road, Wairau Valley, Auckland 0627, New Zealand', 'geometry': {'location': {'lat': -36.7782964, 'lng': 174.7446288}, 'location_type': 'ROOFTOP', 'viewport': {'northeast': {'lat': -36.77694741970851, 'lng': 174.7459777802915}, 'southwest': {'lat': -36.77964538029151, 'lng': 174.7432798197085}}}, 'place_id': 'ChIJ5T5peLw5DW0R2hyU7d0MOes', 'plus_code': {'compound_code': '6PCV+MV Auckland, New Zealand', 'global_code': '4VMP6PCV+MV'}, 'types': ['street_address']}]",-36.7782964,174.7446288
62,Church of Christ Mt Roskill,"361 Mount Albert Road, Mount Roskill, Auckland, 1041",Sunday 15 August,11.00 am - 1.30 pm,"Isolate at home for 14 days from date of last exposure. Test immediately, and on days 5 & 12 after last exposure. Call Healthline for what to do next.",18-Aug,"[{'address_components': [{'long_name': '361', 'short_name': '361', 'types': ['street_number']}, {'long_name': 'Mount Albert Road', 'short_name': 'Mount Albert Rd', 'types': ['route']}, {'long_name': 'Mount Roskill', 'short_name': 'Mount Roskill', 'types': ['political', 'sublocality', 'sublocality_level_1']}, {'long_name': 'Auckland', 'short_name': 'Auckland', 'types': ['locality', 'political']}, {'long_name': 'Auckland', 'short_name': 'Auckland', 'types': ['administrative_area_level_1', 'political']}, {'long_name': 'New Zealand', 'short_name': 'NZ', 'types': ['country', 'political']}, {'long_name': '1041', 'short_name': '1041', 'types': ['postal_code']}], 'formatted_address': '361 Mount Albert Road, Mount Roskill, Auckland 1041, New Zealand', 'geometry': {'location': {'lat': -36.9045793, 'lng': 174.7410793}, 'location_type': 'ROOFTOP', 'viewport': {'northeast': {'lat': -36.90323031970851, 'lng': 174.7424282802915}, 'southwest': {'lat': -36.9059282802915, 'lng': 174.7397303197085}}}, 'place_id': 'ChIJeVQ0z2dGDW0RfoOSZBSJhCE', 'plus_code': {'compound_code': '3PWR+5C Auckland, New Zealand', 'global_code': '4VMP3PWR+5C'}, 'types': ['street_address']}]",-36.9045793,174.7410793
63,BP Birkenhead,"172-178 Mokoia Road, Birkenhead, 0626",Sunday 15 August,10.30 am - 10.45 am,"Isolate at home for 14 days from date of last exposure. Test immediately, and on days 5 & 12 after last exposure. Call Healthline for what to do next.",18-Aug,"[{'address_components': [{'long_name': '172', 'short_name': '172', 'types': ['street_number']}, {'long_name': 'Mokoia Road', 'short_name': 'Mokoia Rd', 'types': ['route']}, {'long_name': 'Chatswood', 'short_name': 'Chatswood', 'types': ['political', 'sublocality', 'sublocality_level_1']}, {'long_name': 'Auckland', 'short_name': 'Auckland', 'types': ['locality', 'political']}, {'long_name': 'Auckland', 'short_name': 'Auckland', 'types': ['administrative_area_level_1', 'political']}, {'long_name': 'New Zealand', 'short_name': 'NZ', 'types': ['country', 'political']}, {'long_name': '0626', 'short_name': '0626', 'types': ['postal_code']}], 'formatted_address': '172 Mokoia Road, Chatswood, Auckland 0626, New Zealand', 'geometry': {'location': {'lat': -36.8110585, 'lng': 174.7132278}, 'location_type': 'ROOFTOP', 'viewport': {'northeast': {'lat': -36.8097095197085, 'lng': 174.7145767802915}, 'southwest': {'lat': -36.8124074802915, 'lng': 174.7118788197085}}}, 'place_id': 'ChIJYQm6NOo4DW0R4InIvQOLzg8', 'types': ['subpremise']}]",-36.8110585,174.7132278
64,Central Auckland Church of Christ,"52 Hepburn Street, Freemans Bay, Auckland 1011",Sunday 15 August,10.15 am - 12.02 pm,"Isolate at home for 14 days from date of last exposure. Test immediately, and on days 5 & 12 after last exposure. Call Healthline for what to do next.",18-Aug,"[{'address_components': [{'long_name': '52', 'short_name': '52', 'types': ['street_number']}, {'long_name': 'Hepburn Street', 'short_name': 'Hepburn St', 'types': ['route']}, {'long_name': 'Freemans Bay', 'short_name': 'Freemans Bay', 'types': ['political', 'sublocality', 'sublocality_level_1']}, {'long_name': 'Auckland', 'short_name': 'Auckland', 'types': ['locality', 'political']}, {'long_name': 'Auckland', 'short_name': 'Auckland', 'types': ['administrative_area_level_1', 'political']}, {'long_name': 'New Zealand', 'short_name': 'NZ', 'types': ['country', 'political']}, {'long_name': '1011', 'short_name': '1011', 'types': ['postal_code']}], 'formatted_address': '52 Hepburn Street, Freemans Bay, Auckland 1011, New Zealand', 'geometry': {'bounds': {'northeast': {'lat': -36.852938, 'lng': 174.7513394}, 'southwest': {'lat': -36.8533128, 'lng': 174.7509136}}, 'location': {'lat': -36.8531421, 'lng': 174.7511019}, 'location_type': 'ROOFTOP', 'viewport': {'northeast': {'lat': -36.8517764197085, 'lng': 174.7524754802915}, 'southwest': {'lat': -36.8544743802915, 'lng': 174.7497775197085}}}, 'place_id': 'ChIJTzN8FZNHDW0RacxKTgUucK0', 'types': ['premise']}]",-36.8531421,174.7511019
65,Countdown Glenfield Mall,"Cnr Glenfield Rd and Downing St, Glenfield, Auckland, 0629",Sunday 15 August,10.30 am - 11.15 am,"Isolate at home for 14 days from date of last exposure. Test immediately, and on days 5 & 12 after last exposure. Call Healthline for what to do next.",19-Aug,"[{'address_components': [{'long_name': 'Glenfield Road & Downing Street', 'short_name': 'Glenfield Rd & Downing St', 'types': ['intersection']}, {'long_name': 'Glenfield', 'short_name': 'Glenfield', 'types': ['political', 'sublocality', 'sublocality_level_1']}, {'long_name': 'Auckland', 'short_name': 'Auckland', 'types': ['locality', 'political']}, {'long_name': 'Auckland', 'short_name': 'Auckland', 'types': ['administrative_area_level_1', 'political']}, {'long_name': 'New Zealand', 'short_name': 'NZ', 'types': ['country', 'political']}, {'long_name': '0629', 'short_name': '0629', 'types': ['postal_code']}], 'formatted_address': 'Glenfield Rd & Downing St, Glenfield, Auckland 0629, New Zealand', 'geometry': {'location': {'lat': -36.783506, 'lng': 174.7214194}, 'location_type': 'GEOMETRIC_CENTER', 'viewport': {'northeast': {'lat': -36.7821570197085, 'lng': 174.7227683802915}, 'southwest': {'lat': -36.7848549802915, 'lng': 174.7200704197085}}}, 'place_id': 'EkBHbGVuZmllbGQgUmQgJiBEb3duaW5nIFN0LCBHbGVuZmllbGQsIEF1Y2tsYW5kIDA2MjksIE5ldyBaZWFsYW5kImYiZAoUChIJT2ZV_w85DW0RLge7AaA43w8SFAoSCU9mVf8POQ1tES4HuwGgON8PGhQKEgmB0FpEBTkNbREoVkRY82m1nhoUChIJhzB4gg85DW0RsRbvtIwvkwIiCg1MSBPqFXJfJGg', 'types': ['intersection']}]",-36.783506,174.7214194
66,New Lynn RSA Bowling Club,"2 Veronica Street, New Lynn, Auckland 0600",Sunday 15 August,8.00 am - 5.00 pm,"Isolate at home for 14 days from date of last exposure. Test immediately, and on days 5 & 12 after last exposure. Call Healthline for what to do next.",20-Aug,"[{'address_components': [{'long_name': '2', 'short_name': '2', 'types': ['street_number']}, {'long_name': 'Veronica Street', 'short_name': 'Veronica St', 'types': ['route']}, {'long_name': 'New Lynn', 'short_name': 'New Lynn', 'types': ['political', 'sublocality', 'sublocality_level_1']}, {'long_name': 'Auckland', 'short_name': 'Auckland', 'types': ['locality', 'political']}, {'long_name': 'Auckland', 'short_name': 'Auckland', 'types': ['administrative_area_level_1', 'political']}, {'long_name': 'New Zealand', 'short_name': 'NZ', 'types': ['country', 'political']}, {'long_name': '0600', 'short_name': '0600', 'types': ['postal_code']}], 'formatted_address': '2 Veronica Street, New Lynn, Auckland 0600, New Zealand', 'geometry': {'bounds': {'northeast': {'lat': -36.9076776, 'lng': 174.6882192}, 'southwest': {'lat': -36.9081699, 'lng': 174.6874323}}, 'location': {'lat': -36.9078745, 'lng': 174.6878708}, 'location_type': 'ROOFTOP', 'viewport': {'northeast': {'lat': -36.9065747697085, 'lng': 174.6891747302915}, 'southwest': {'lat': -36.9092727302915, 'lng': 174.6864767697085}}}, 'place_id': 'ChIJR7gx40xBDW0RyQPQzEJHV2Q', 'types': ['premise']}]",-36.9078745,174.6878708
67,Mobil Don Buck,"Don Buck and Triangle Road, Massey, Auckland 0614",Saturday 14 August,10.15 pm - 10.20 pm,"Isolate at home for 14 days from date of last exposure. Test immediately, and on days 5 & 12 after last exposure. Call Healthline for what to do next.",19-Aug,"[{'address_components': [{'long_name': 'Triangle Road', 'short_name': 'Triangle Rd', 'types': ['route']}, {'long_name': 'Auckland', 'short_name': 'Auckland', 'types': ['administrative_area_level_1', 'political']},